Name,Categories,Cuisine Types,Nationalities,Rating,Address,Res_Latitude,Res_Longitude,Reviews,Distance,Phone,Closed,Price,City
Halong Bay Noodle House,Vietnamese,Vietnamese,Vietnamese,4.0,"16971 127 Street NW, Edmonton",53.631934,-113.539942,56,505.61,17803716800,False,$$,Edmonton
Memphis Blues Barbeque House,"Barbeque, Whiskey Bars","Barbeque, Whiskey Bars",NA,3.0,"16907 127 Street NW, Edmonton",53.63075,-113.539256,61,589.94,17804796227,False,$$,Edmonton
Denny's,"Breakfast & Brunch, American",Breakfast & Brunch,American,3.5,"16711 127 Street, Edmonton",53.62967,-113.540866,7,739.14,17804573265,False,$$,Edmonton
Panda Express,"Chinese, Fast Food",Fast Food,Chinese,3.0,"16704 127th St NW, Edmonton",53.630517,-113.541212,33,681.27,17804578056,False,$$,Edmonton
Royal Pizza,Pizza,Pizza,NA,3.0,"16721 127 Street, Edmonton",53.630157,-113.53707,27,601.19,17804762241,False,$$,Edmonton
Teriyaki Corner,Japanese,Japanese,Japanese,3.0,"16815 127 Street NW, Edmonton",53.630335,-113.540255,22,662.69,17804846325,False,$$,Edmonton
kb&co,"Juice Bars & Smoothies, Coffee & Tea, Sandwiches","Juice Bars & Smoothies, Coffee & Tea, Sandwiches",NA,5.0,"16715 127 Street, Edmonton",53.62949,-113.53886,2,734.42,17804726931,False,$$,Edmonton
Shawarma Shack & Donair,"Middle Eastern, Burgers",Burgers,Middle Eastern,4.5,"12432 167 Ave NW, Edmonton",53.62964,-113.537739,2,667.79,17802508845,False,$$,Edmonton
Bar Burrito,"Mexican, Fast Food",Fast Food,Mexican,2.5,"16955 127 Street NW, Edmonton",53.631964,-113.539124,7,470.18,17802492090,False,$$,Edmonton
Apna Dhaba,"Indian, Desserts, Burgers","Desserts, Burgers",Indian,4.0,"16741 127 Street NW, Edmonton",53.630187,-113.538747,1,632.06,17807522061,False,$$,Edmonton
Subway,"Fast Food, Sandwiches","Fast Food, Sandwiches",NA,3.5,"Albany Market Square, Edmonton",53.629162,-113.543608,3,897.26,17804763334,False,$$,Edmonton
Dairy Queen Grill & Chill,"Ice Cream & Frozen Yogurt, Fast Food, Burgers","Fast Food, Burgers",NA,3.0,"16981 127th St, Edmonton",53.631881,-113.540432,3,531.2,17807056757,False,$,Edmonton
Taco Time,Mexican,Mexican,Mexican,3.0,"12712 167 Avenue NW, Edmonton",53.629042,-113.543101,3,887.19,15875210375,False,$,Edmonton
Freshii,"Vegetarian, Salad, Fast Food",Fast Food,NA,3.5,"12444 167th Ave NW, Edmonton",53.629705,-113.537631,4,658.91,15877826959,False,$,Edmonton
Mary Brown's,Fast Food,Fast Food,NA,2.5,"16703 127th Street NW, Edmonton",53.629378,-113.540856,3,777.64,<NA>,False,$,Edmonton
Woodwork,"Canadian (New), Cocktail Bars",Cocktail Bars,Canadian (New),4.0,"10132-100 Street, Edmonton",53.541943,-113.490731,175,249.31,17807574100,False,$$,Edmonton
OEB Breakfast,Breakfast & Brunch,Breakfast & Brunch,NA,4.5,"10174 100A Street, Edmonton",53.54252,-113.49257,245,273.65,15875200936,False,$$,Edmonton
JOEY Bell Tower,"Canadian (New), Lounges, Steakhouses",Steakhouses,Canadian (New),4.0,"10310-101 Street NW, Edmonton",53.545096,-113.494169,81,356.83,17809905639,False,$$,Edmonton
Sabor,"Portuguese, Spanish",Portuguese,NA,4.0,"10220 103 Street, Edmonton",53.543381,-113.497605,175,564.9,17807571114,False,$$$,Edmonton
XO Bistro & Bar,"Vietnamese, Bars",Bars,Vietnamese,4.5,"10236 103 Street, Edmonton",53.5438,-113.49757,82,564.17,17807619696,False,$$,Edmonton
Sorrentino's Downtown,Italian,Italian,Italian,4.0,"10162 100 St NW, Edmonton",53.542404,-113.490482,46,196.08,17804247500,False,$$$,Edmonton
CRAFT Beer Market,"Canadian (New), Burgers, Beer Bar","Burgers, Beer Bar",Canadian (New),3.5,"10013 101A Avenue, Edmonton",53.542201,-113.491393,259,247.62,17804242337,False,$$,Edmonton
Bistro Praha,"Modern European, Czech",Modern European,Modern European,4.0,"10117 101 Street NW, Edmonton",53.541421,-113.493436,75,402.28,17804244218,False,$$,Edmonton
De Dutch,"Breakfast & Brunch, Gluten-Free, Canadian (New)",Breakfast & Brunch,Canadian (New),4.0,"10030 Jasper Ave, Edmonton",53.54125,-113.49157,159,338.94,15875208841,False,$$,Edmonton
Ruth's Chris Steak House,Steakhouses,Steakhouses,NA,4.0,"9990 Jasper Avenue, Edmonton",53.54163,-113.48989,113,283.23,17809900123,False,$$$$,Edmonton
Confederation Lounge,"Lounges, Canadian (New)",Lounges,Canadian (New),4.0,"10065 100th Street, Edmonton",53.54012,-113.48925,40,413.1,17804245181,False,$$$,Edmonton
The Underground Tap & Grill,"Pubs, American",Pubs,American,3.5,"10004 Jasper Avenue NW, Edmonton",53.541296,-113.490743,107,316.14,17804251880,False,$$,Edmonton
Padmanadi Vegetarian Restaurant,"Vegetarian, Indonesian, Vegan",Vegetarian,NA,4.5,"10740 101 Street, Edmonton",53.552516,-113.4938,326,999.56,17804288899,False,$$,Edmonton
Harvest Room,"Breakfast & Brunch, Canadian (New)",Breakfast & Brunch,Canadian (New),4.0,"10065 - 100th Street, Edmonton",53.54012,-113.48925,62,413.1,17804245181,False,$$$,Edmonton
Dalla Tavola Zenari,Italian,Italian,Italian,4.5,"10166-100 A Street NW, Edmonton",53.542282,-113.4926,27,297.03,17805408920,False,$$$,Edmonton
Rosewood Foods,"Breakfast & Brunch, Cafes, Salad",Cafes,NA,4.5,"101-10150 100 Street NW, Edmonton",53.542433,-113.490942,18,209.22,17807578030,False,$$$,Edmonton
Chop steakhouse,"Seafood, Steakhouses, Lounges","Seafood, Steakhouses",NA,3.5,"10235 101 Street, Edmonton",53.54506,-113.4935,86,284.66,17804413075,False,$$$,Edmonton
Rigoletto's Cafe,Italian,Italian,Italian,4.0,"10305 - 100 Avenue NW, Edmonton",53.54192,-113.486965,39,268.41,17804290701,False,$$,Edmonton
La Ronde Revolving Restaurant,Steakhouses,Steakhouses,NA,4.0,"10111 Bellamy Hill NW, Edmonton",53.53916,-113.49416,91,637.63,17804286611,False,$$$,Edmonton
L'espresso Cafe,"Coffee & Tea, Pizza, Sandwiches","Coffee & Tea, Pizza, Sandwiches",NA,3.5,"Main Floor, Chancery Hall Building, Edmonton",53.544156,-113.48887,19,26.3,17804290007,False,$,Edmonton
Pazzo Pazzo Italian Cuisine,Italian,Italian,Italian,3.5,"10016-103 Avenue NW, Edmonton",53.545696,-113.491889,63,265.57,17804257711,False,$$,Edmonton
Braven,"Steakhouses, Seafood, Cocktail Bars","Steakhouses, Seafood, Cocktail Bars",NA,3.5,"10344 102 Street NW, Edmonton",53.54565,-113.49582,45,480.98,17807848580,False,$$,Edmonton
Thanh Thanh Oriental Noodle House,Vietnamese,Vietnamese,Vietnamese,4.0,"10718 101 Street NW, Edmonton",53.55186,-113.49402,88,936.94,17804265068,False,$$,Edmonton
Continental Treat Fine Bistro,"Gluten-Free, Modern European",Gluten-Free,Modern European,4.5,"9698 Jasper Avenue, Edmonton",53.54266,-113.48533,10,305.96,17807580442,False,$$,Edmonton
Share,"Steakhouses, Canadian (New)",Steakhouses,Canadian (New),4.0,"10135 100 Street NW, Edmonton",53.542132,-113.489185,10,204.26,17804938994,False,$$$,Edmonton
Atlas Steak + Fish,"Steakhouses, Seafood, Bars","Steakhouses, Seafood, Bars",NA,3.5,"10204 104 Avenue NW, Edmonton",53.546778,-113.496018,63,552.96,17804133178,False,$$$,Edmonton
LUX Steakhouse and Bar,"Lounges, Steakhouses, Canadian (New)",Steakhouses,Canadian (New),3.5,"Commerce Pl, Edmonton",53.713942,-113.217024,94,410.69,17804240400,False,$$$,Edmonton
Old Spaghetti Factory,Italian,Italian,Italian,4.0,"10220 103 St NW, Edmonton",53.543616,-113.497573,74,560.34,17804226088,False,$$,Edmonton
Amore Pasta,Italian,Italian,Italian,4.5,"10235 101St NW, Edmonton",53.54506,-113.4935,12,276.18,<NA>,False,$$,Edmonton
Board N Brew Café,"Cafes, Arts & Entertainment",Cafes,NA,4.5,"9929 103 Street, Edmonton",53.53793,-113.49693,18,824.92,17807578262,False,$$,Edmonton
The Hallway Cafe,"Diners, Sandwiches",Sandwiches,NA,4.0,"1 Sir Winston Churchill Square, Edmonton",53.545153,-113.490538,10,161.91,17804138060,False,$$,Edmonton
Normand's Bistro,Canadian (New),Canadian (New),Canadian (New),3.5,"10177 99 Street NW, Edmonton",53.542962,-113.488372,32,122.16,17804251008,False,$$,Edmonton
Asian Express Hot Pot,"Asian Fusion, Hot Pot",Asian Fusion,Asian Fusion,4.5,"10586 100 Street NW, Edmonton",53.5496,-113.49212,52,656.87,17804218300,False,$$,Edmonton
Lee House,"Korean, Barbeque",Barbeque,Korean,4.0,"10704 97 Street NW, Edmonton",53.5519,-113.48977,32,885.51,17804380790,False,$$,Edmonton
Oil Lamp Unique Dining,"Mediterranean, Greek, Wine Bars",Wine Bars,"Mediterranean, Greek",4.0,"10247-97 Street, Edmonton",53.545087,-113.486374,34,219.58,17804290808,False,$$,Edmonton
Bianco,Italian,Italian,Italian,4.0,"120-10020 101 A Avenue, Edmonton",53.542456,-113.492005,52,254.6,17807618838,False,$$,Edmonton
Pho Tau Bay,Vietnamese,Vietnamese,Vietnamese,4.5,"10660 98 St NW, Edmonton",53.5513,-113.4909,86,825.48,17804210807,False,$,Edmonton
Buco Pizzeria + Vino Bar,"Italian, Wine Bars",Wine Bars,Italian,4.0,"10423 101 Street NW, Edmonton",53.547408,-113.493181,26,467.43,17802502826,False,$,Edmonton
The Greenhouse,"Salad, Vegetarian",Salad,NA,4.5,"10119 101 Street, Edmonton",53.54136,-113.49341,18,404.25,15875249226,False,$$,Edmonton
Remedy Cafe,"Indian, Coffee & Tea, Pakistani",Coffee & Tea,Indian,3.5,"10279 Jasper Avenue, Edmonton",53.540581,-113.497162,163,644.07,17807577720,False,$$,Edmonton
Boualouang Laos & Thai Cuisine,Thai,Thai,Thai,4.0,"10569 97th Street NW, Edmonton",53.54999,-113.48822,78,668.4,17804234207,False,$$,Edmonton
Double Greeting Wonton House,Chinese,Chinese,Chinese,4.0,"10212 96 Street NW, Edmonton",53.54492,-113.48305,59,413.04,17804242486,False,$$,Edmonton
The Creperie,"Creperies, French",Creperies,French,3.5,"10220 103 Street NW, Edmonton",53.543421,-113.497688,102,569.84,17804206656,False,$$$,Edmonton
All Happy Family Restaurant,Chinese,Chinese,Chinese,3.5,"10011 106 Avenue NW, Edmonton",53.549729,-113.492411,110,676.62,17804218297,False,$$,Edmonton
New Tan Tan,Dim Sum,Dim Sum,NA,4.0,"10133 97 Street NW, Edmonton",53.5429,-113.48525,23,278.65,17804201838,False,$$,Edmonton
97 Hot Pot,"Hot Pot, Chinese",Hot Pot,Chinese,4.0,"10602 97 Street NW, Edmonton",53.550362,-113.48881,66,711.2,15875211888,False,$$,Edmonton
Haweli Restaurant,Indian,Indian,Indian,3.5,"10220 103 Street NW, Edmonton",53.54314,-113.49784,45,563.8,17804218100,False,$$,Edmonton
Golden Bird Restaurant,Vietnamese,Vietnamese,Vietnamese,4.5,"10544 97 Street NW, Edmonton",53.54968,-113.48868,40,635.97,17804201612,False,$$,Edmonton
King Noodle House Pho Hoang,Vietnamese,Vietnamese,Vietnamese,4.0,"10615 97 Street North West, Edmonton",53.550617,-113.488633,53,741.46,17804288983,False,$,Edmonton
Bodega Tapas and Wine Bar,"Tapas Bars, Wine Bars","Tapas Bars, Wine Bars",NA,4.0,"10220 103 Street, Edmonton",53.543082,-113.497461,38,560.34,17807571114,False,$$$,Edmonton
Dang Good Restaurant,"Vietnamese, Soup",Vietnamese,Vietnamese,4.5,"13308-118 Avenue NW, Edmonton",53.570378,-113.551644,86,755.61,17807563264,False,$$,Edmonton
Dutch Delicious Bakery & Deli,"Bakeries, Cafes, Delis",Cafes,NA,4.5,"13232 118 Avenue NW, Edmonton",53.57062,-113.55156,31,794.12,17804552323,False,$$,Edmonton
Favoloso,Italian,Italian,Italian,4.5,"13240 118 Avenue NW, Edmonton",53.568871,-113.552159,17,597.7,17804546329,False,$$,Edmonton
Mountain Bistro,"Indian, Bistros",Indian,Indian,4.5,"11120 142 Street NW, Edmonton",53.55965,-113.56644,17,790.0,17807571346,False,$$,Edmonton
Boston Pizza,"Pizza, Italian",Pizza,Italian,3.5,"11320 Groat Road NW, Edmonton",53.56237,-113.55178,21,444.08,17804528585,False,$$,Edmonton
Tony Roma's,"Steakhouses, American, Barbeque","Steakhouses, Barbeque",American,2.5,"111th & Ave. Groat Rd, Edmonton",53.56195,-113.551573,30,494.14,17804887427,False,$$,Edmonton
Nikki's,"Fast Food, Burgers","Fast Food, Burgers",NA,4.0,"11035 Groat Road NW, Edmonton",53.560928,-113.5545,10,454.8,<NA>,False,$,Edmonton
Bravo Pizza & Kitchen,"Italian, Pizza, Burgers","Pizza, Burgers",Italian,5.0,"13240 118 Avenue NW, Edmonton",53.57062,-113.55175,4,779.87,17804552341,False,$,Edmonton
Dairy Queen Grill & Chill,"Ice Cream & Frozen Yogurt, Fast Food",Fast Food,NA,3.0,"13356-114th Ave, Edmonton",53.564207,-113.552951,6,310.18,17804541818,False,$$,Edmonton
Panda Hut Express,Chinese,Chinese,Chinese,3.0,"14204 118 Avenue NW, Edmonton",53.57078,-113.5665,24,896.69,15874733663,False,$$,Edmonton
McDonald's,"Fast Food, Burgers, Coffee & Tea","Fast Food, Burgers, Coffee & Tea",NA,2.0,"11260 Groat Road, Edmonton",53.561531,-113.552036,6,500.11,17804552117,False,$,Edmonton
Subway,"Fast Food, Sandwiches","Fast Food, Sandwiches",NA,4.0,"Westmount Shopping Centre, Edmonton",53.560889,-113.554172,1,468.73,17804546311,False,$,Edmonton
Tim Hortons,"Coffee & Tea, Delis, Sandwiches","Coffee & Tea, Sandwiches",NA,1.5,"11240 Groat Rd North West, Edmonton",53.561306,-113.551578,3,539.32,17804551982,False,$,Edmonton
Purple Pear,"Pizza, Burgers, Sandwiches","Pizza, Burgers, Sandwiches",NA,2.5,"11211 142 Street NW, Edmonton",53.560714,-113.565606,3,562.28,17804513344,False,$,Edmonton
Pizza Hut,"Pizza, Chicken Wings, Fast Food","Pizza, Fast Food",NA,1.0,"13326-114 Ave, Edmonton",53.564738,-113.552424,3,342.69,17807329387,False,$,Edmonton
Smitty's Family Restaurant,"American, Breakfast & Brunch",American,American,3.0,"Westmount Shopping Centre, Edmonton",53.560412,-113.553658,15,531.66,<NA>,False,$$,Edmonton
Wendy's,"Fast Food, Burgers","Fast Food, Burgers",NA,2.5,"14205 118th Avenue, Edmonton",53.57007,-113.5665,11,843.35,17804512669,False,$,Edmonton
Church´s Texas Chicken,"Chicken Wings, Fast Food",Fast Food,NA,3.0,"13412-111 Avenue NW, Edmonton",53.559085,-113.554255,9,602.23,17804547376,False,$,Edmonton
Tim Hortons,"Delis, Sandwiches",Sandwiches,NA,2.5,"11240 Groat Road NW, Edmonton",53.561087,-113.551695,9,522.16,17804551982,False,$,Edmonton
Oriental Gourmet,"Fast Food, Chinese",Fast Food,Chinese,3.0,"Westmount Shopping Centre, Edmonton",53.560918,-113.554322,1,461.2,<NA>,False,$,Edmonton
Edo Japan,Japanese,Japanese,Japanese,3.5,"Westmount Shopping Ctr, Edmonton",53.55884,-113.55152,3,754.12,17804555965,False,$,Edmonton
Subway,"Sandwiches, Fast Food","Sandwiches, Fast Food",NA,3.0,"11843 St Albert Trail, Edmonton",53.57105,-113.54907,3,928.98,17804525863,False,$,Edmonton
Coronation Corner,"Restaurants, Health & Medical",Restaurants,NA,3.0,"142 Street & 111 Avenue, West Edmonton",53.55883,-113.5659,1,837.0,<NA>,False,$$,Edmonton
Msi Maiorana Stone Incorporated,NA,NA,NA,5.0,"11840 142 Street NW, Edmonton",53.57152,-113.56649,1,945.14,17804542104,False,$$,Edmonton
Arby's,"Fast Food, Sandwiches","Fast Food, Sandwiches",NA,1.0,"310 Westmount Shopping Centre, Edmonton",53.567542,-113.564889,2,583.04,17804514264,False,$,Edmonton
Mr Sub,"Sandwiches, Fast Food","Sandwiches, Fast Food",NA,3.0,"14116 118 Avenue NW, Edmonton",53.57069,-113.5653,6,850.79,17804556242,False,$,Edmonton
Million Thai,Thai,Thai,Thai,4.5,"4109 118 Avenue NW, Edmonton",53.570406,-113.405552,51,323.15,17804771617,False,$$,Edmonton
Swiss 2 Go,Sandwiches,Sandwiches,NA,4.5,"4306-118 Avenue, Edmonton",53.57066,-113.40801,74,484.13,15875209400,False,$$,Edmonton
Old Beverly Cafe In & Out,"Cafes, Breakfast & Brunch, Burgers","Cafes, Burgers",NA,4.0,"3908 118 Avenue, Edmonton",53.57064,-113.4023,15,151.93,17809642758,False,$$,Edmonton
Yang Ming Buffet,"Buffets, Chinese, Sushi Bars",Sushi Bars,Chinese,3.5,"3414 118 Ave NW, Edmonton",53.57113,-113.39573,96,445.97,17807527888,False,$$,Edmonton
Jay Bee's Diner,"Diners, Breakfast & Brunch",Diners,NA,3.5,"3633 118 Avenue NW, Edmonton",53.57011,-113.3982,48,213.09,17804775885,False,$$,Edmonton
Donair Lover,"Donairs, Pizza",Pizza,NA,4.0,"3731 118 Avenue NW, Edmonton",53.570293,-113.39989,8,137.55,17802445566,False,$$,Edmonton
Mumbai Dakar Restaurant,"Indian, African",Indian,"Indian, African",4.5,"4322 118 Avenue NW, Edmonton",53.570564,-113.408878,7,536.63,17804740833,False,$$,Edmonton
24 Hours Pizza and Donair,"Donairs, Pizza",Pizza,NA,1.5,"4018-118 Avenue, Edmonton",53.570396,-113.40419,6,242.43,15875241966,False,$$,Edmonton
A&W,"Fast Food, Burgers","Fast Food, Burgers",NA,3.0,"4205 118 Avenue NW, Edmonton",53.57018,-113.406796,4,392.72,17804747346,False,$,Edmonton
Pizza Hut,"Pizza, Chicken Wings, Fast Food","Pizza, Fast Food",NA,2.5,"11740 34th Street, Edmonton",53.56997,-113.39546,3,392.08,17804715569,False,$,Edmonton
Taco Bell,Fast Food,Fast Food,NA,1.0,"3349 118 Avenue NW, Edmonton",53.569969,-113.393188,5,511.28,17804482621,False,$,Edmonton
DQ Grill & Chill Restaurant,"Fast Food, Ice Cream & Frozen Yogurt, Burgers","Fast Food, Burgers",NA,1.0,"3415 118 Ave NW, Edmonton",53.570097,-113.394288,5,452.66,17804713232,False,$,Edmonton
Dairy Queen Grill & Chill,"Ice Cream & Frozen Yogurt, Fast Food",Fast Food,NA,1.0,"3415 118 Ave Nw, Edmonton",53.570085,-113.394293,3,455.39,17804713232,False,$,Edmonton
KFC,"Chicken Wings, Fast Food, Chicken Shop",Fast Food,NA,1.0,"3349 - 118th Avenue NW, Edmonton",53.56997,-113.39319,1,511.28,17804482621,False,$,Edmonton
Tysons Grill,Breakfast & Brunch,Breakfast & Brunch,NA,2.0,"3414 118th Aveenue NW, Edmonton",53.570574,-113.394711,2,443.14,17804740456,False,$,Edmonton
Anvil Coffee House,"Coffee & Tea, Sandwiches, Breakfast & Brunch","Coffee & Tea, Sandwiches",NA,4.5,"6148-90 Avenue, Edmonton",53.525396,-113.427337,17,696.94,17802505245,False,$,Edmonton
Donair Stop,"Fast Food, Donairs, Burgers","Fast Food, Burgers",NA,3.5,"9718 Ottewell Road NW, Edmonton",53.53703,-113.43821,19,804.45,17804654484,False,$$,Edmonton
The Chopped Leaf,"Soup, Sandwiches, Salad",Sandwiches,NA,5.0,"5004 98 Avenue NW, Edmonton",53.539003,-113.422211,1,1023.14,15877589111,False,$$,Edmonton
Dairy Queen Grill & Chill,"Fast Food, Ice Cream & Frozen Yogurt, Burgers","Fast Food, Burgers",NA,2.0,"6104 Terrace Rd, Edmonton",53.540218,-113.426518,12,1027.44,17804692431,False,$,Edmonton
Pizza 73,Pizza,Pizza,NA,2.0,"9722 Ottewell Rd, Edmonton",53.53706,-113.4382,7,804.58,17804737373,False,$$,Edmonton
Buds Lounge,Breakfast & Brunch,Breakfast & Brunch,NA,2.5,"5615 101 Avenue NW, Edmonton",53.539905,-113.423128,3,1078.59,<NA>,False,$$,Edmonton
Ernest's Dining Room,Canadian (New),Canadian (New),Canadian (New),4.5,"118 Avenue 106 Street, Edmonton",53.5704,-113.48739,13,277.41,17804718676,False,$$,Edmonton
Ernest's,Canadian (New),Canadian (New),Canadian (New),4.5,"Hokanson Centre for Culinary Arts, Edmonton",53.56986,-113.504023,20,263.77,17804718676,False,$$,Edmonton
Chicken For You,"Chicken Shop, Korean",Chicken Shop,Korean,5.0,"10406 118 Ave NW, Edmonton",53.57061,-113.49957,7,296.41,17807053336,False,$$,Edmonton
Moxies,"Canadian (New), Steakhouses, Lounges",Steakhouses,Canadian (New),3.0,"10628 Kingsway Avenue, Edmonton",53.559431,-113.504614,47,982.17,17809440232,False,$$,Edmonton
Swagat India Bar and Bistro,"Indian, Himalayan/Nepalese",Indian,Indian,4.5,"9737 118 Avenue NW, Edmonton",53.57009,-113.49308,11,579.88,17804798838,False,$$,Edmonton
Nhatrang Vietnamese Restaurant,Vietnamese,Vietnamese,Vietnamese,4.0,"10120 111 Avenue NW, Edmonton",53.559083,-113.494899,24,1085.89,17804794649,False,$$,Edmonton
Jimmy The Greek,"Fast Food, Greek",Fast Food,Greek,3.5,"Kingsway Mall, Edmonton",53.56529,-113.50557,13,409.09,17804374376,False,$$,Edmonton
Boston Pizza,Pizza,Pizza,NA,3.5,"Kingsway Mall, Edmonton",53.564697,-113.503658,10,448.61,17804749996,False,$$,Edmonton
Pur & Simple,Breakfast & Brunch,Breakfast & Brunch,NA,4.0,"1 Kingsway Garden Mall NW, Edmonton",53.5619,-113.506472,5,757.79,17802500037,False,$$,Edmonton
Runway 29,"Breakfast & Brunch, Pubs, Lounges",Pubs,NA,2.5,"11312 109 Street NW, Edmonton",53.5632,-113.50946,19,748.42,17804792042,False,$$,Edmonton
The Barbecue House,Barbeque,Barbeque,NA,3.5,"9711 118 Avenue NW, Edmonton",53.57016,-113.49247,16,623.06,17804776113,False,$,Edmonton
Jin's Chinese Cuisine,"Chinese, Seafood, Hot Pot",Seafood,Chinese,4.0,"11828 103 Street NW, Edmonton",53.571093,-113.498781,2,392.31,17804788805,False,$,Edmonton
Jollibee,"Chicken Shop, Fast Food",Fast Food,NA,3.5,"1 Kingsway Garden Mall Northwest, Edmonton",53.562677,-113.505114,11,642.4,18252575022,False,$,Edmonton
Donair Way,"Donairs, Fish & Chips, Burgers",Burgers,NA,3.5,"11824 103 Street, Edmonton",53.57096,-113.49844,7,375.03,17804777884,False,$$,Edmonton
Kim Chi Korean Delight,Korean,Korean,Korean,3.5,"109st Kingsway Garden Mall, Edmonton",53.562227,-113.506374,14,722.32,17804910138,False,$$,Edmonton
The Blind Duck,"Bars, American",Bars,American,3.0,"10416 118 Avenue NW, Edmonton",53.5705,-113.49996,5,286.05,17804797193,False,$$,Edmonton
Polish Food Centre,Polish,Polish,NA,3.5,"10133 Princess Elizabeth Avenue NW, Edmonton",53.5693,-113.49436,5,495.56,17804778687,False,$$,Edmonton
ALL NIGHT PIZZA,"Donairs, Pizza, Burgers","Pizza, Burgers",NA,1.0,"9715 118 Avenue NW, Edmonton",53.57009,-113.49268,5,622.16,17804480004,False,$$,Edmonton
McDonald's,"Fast Food, Burgers, Coffee & Tea","Fast Food, Burgers, Coffee & Tea",NA,1.5,"10520 111 Avenue NW, Edmonton",53.55934,-113.502249,13,968.12,17804148301,False,$$,Edmonton
Thai Express,Thai,Thai,Thai,2.0,"109 Street & Princess Elizabeth Avenue, Edmonton",53.56529,-113.50557,9,630.6,17804910138,False,$$,Edmonton
New York Steak & Pizza Lounge,"Steakhouses, Pizza","Steakhouses, Pizza",NA,1.5,"11824 103 St NW, Edmonton",53.57096,-113.49844,5,374.26,17804790333,False,$$,Edmonton
A&W,"Fast Food, Burgers","Fast Food, Burgers",NA,2.0,"10823 Kingsway Avenue NW, Edmonton",53.560046,-113.507456,11,972.15,17804776436,False,$$,Edmonton
Polonia Sausage & Deli,"Imported Food, Delis, International Grocery",Imported Food,NA,2.0,"10135 Princess Elizabeth Avenue NW, Edmonton",53.569187,-113.495428,4,419.23,17804798826,False,$$,Edmonton
Sbarro,Pizza,Pizza,NA,3.0,"Kingsway Garden Mall, Edmonton",53.562272,-113.506633,6,725.7,17804131847,False,$$,Edmonton
A&W,"Burgers, Fast Food","Burgers, Fast Food",NA,1.0,"Kingsway Mall Food Court, Edmonton",53.56129,-113.50344,1,650.75,17804741186,False,$$,Edmonton
New York Pizza & Donair,"Pizza, Donairs, Burgers","Pizza, Burgers",NA,1.5,"9715 118 Avenue NW, Edmonton",53.57016,-113.49254,13,622.16,17804480004,False,$$$,Edmonton
Edo Japan,"Japanese, Fast Food",Fast Food,Japanese,3.0,"1 Kingsway Garden Mall NW, Edmonton",53.562586,-113.505991,6,653.62,17804791372,False,$,Edmonton
Dairy Queen,"Ice Cream & Frozen Yogurt, Fast Food",Fast Food,NA,3.0,"109 St & Princess Elizabeth Ave, Edmonton",53.562454,-113.506333,2,698.6,17804747367,False,$,Edmonton
KFC,"Fast Food, Chicken Wings, Chicken Shop",Fast Food,NA,1.0,"2054 - 109th Street, Edmonton",53.56245,-113.506711,1,710.82,17804484940,False,$,Edmonton
Roma Bistro,"Canadian (New), Music Venues",Canadian (New),Canadian (New),2.0,"9737 118 Avenue NW, Edmonton",53.57005,-113.49324,4,579.88,17804798838,False,$,Edmonton
New York Fries - Kingsway Mall,Fast Food,Fast Food,NA,3.0,"1 Kingsway NW, Edmonton",53.56129,-113.50344,1,650.75,17804776108,False,$,Edmonton
Qwik Wok,Chinese,Chinese,Chinese,2.0,"Kingsway Mall, Edmonton",53.56072,-113.5084,7,915.08,17804747376,False,$,Edmonton
Mucho Burrito,"Mexican, Fast Food",Fast Food,Mexican,4.5,"9558-9630 137th Avenue NW, Edmonton",53.599857,-113.487595,14,685.79,<NA>,False,$$,Edmonton
Nam Kitchen Express,"Vietnamese, Chinese",Vietnamese,"Vietnamese, Chinese",4.0,"9316 - 137 Avenue NW, Edmonton",53.600116,-113.485868,15,624.88,17804783313,False,$$,Edmonton
Japanese Village,"Japanese, Steakhouses, Seafood","Steakhouses, Seafood",Japanese,3.5,"9499 137 Avenue, Edmonton",53.598305,-113.487188,22,565.33,17804226083,False,$$$,Edmonton
Glengarry Elementary School,Elementary Schools,Elementary Schools,NA,5.0,"9211 135 Avenue NW, Edmonton",53.596645,-113.483813,2,296.9,17804765373,False,$$$,Edmonton
Mediterranean Pita Bakery,"Bakeries, Mediterranean, Grocery",Bakeries,Mediterranean,4.5,"9046 132 Avenue NW, Edmonton",53.592122,-113.481658,8,436.49,17804766666,False,$,Edmonton
Jerusalem Shawarma,Mediterranean,Mediterranean,Mediterranean,4.5,"9320 137 Avenue NW, Edmonton",53.600176,-113.48585,3,626.22,17803710606,False,$,Edmonton
Red Swan Pizza,Pizza,Pizza,NA,3.5,"13705 93 Street NW, Edmonton",53.59995,-113.48479,6,565.59,17802440234,False,$,Edmonton
Good Buddy Express,Vietnamese,Vietnamese,Vietnamese,4.0,"9499 137th Avenue, Edmonton",53.599295,-113.487834,2,565.57,17804063838,False,$,Edmonton
Your Pizza Guy,"Pizza, Italian, Chicken Wings",Pizza,Italian,3.5,"9412 137 Ave NW, Edmonton",53.599892,-113.487783,3,697.82,17809008526,False,$,Edmonton
Quiznos,Sandwiches,Sandwiches,NA,1.5,"9403 137 Ave NW, Edmonton",53.599909,-113.485847,3,606.78,17804765944,False,$,Edmonton
Edo Japan,"Japanese, Fast Food",Fast Food,Japanese,4.0,"9499 137 Avenue NW, Edmonton",53.599285,-113.487835,4,573.64,17804762853,False,$,Edmonton
Splash Poke,"Hawaiian, Poke",Hawaiian,NA,2.0,"9499 137 Avenue NW, Edmonton",53.59928,-113.4881,1,573.64,17807569650,False,$,Edmonton
Edo Japan,"Fast Food, Japanese",Fast Food,Japanese,4.0,"9322 137 Avenue NW, Edmonton",53.600239,-113.485867,1,635.29,17807605556,False,$,Edmonton
Subway,"Sandwiches, Fast Food","Sandwiches, Fast Food",NA,2.5,"Northgate Centre, Edmonton",53.599285,-113.487835,3,636.56,17804068040,False,$,Edmonton
Mary brown's,Fast Food,Fast Food,NA,2.5,"13707 93 Street NW, Edmonton",53.60006,-113.48479,4,575.24,17804060786,False,$,Edmonton
Skyking Chinese Food,Chinese,Chinese,Chinese,2.0,"4F North Town Mall NW, Edmonton",53.60001,-113.48815,2,745.74,17804783313,False,$,Edmonton
Little Caesar's Pizza,Pizza,Pizza,NA,3.0,"NorthTown Plaza, Edmonton",53.599908,-113.487767,2,698.12,17804423500,False,$,Edmonton
Turquaz Kebab House,"Middle Eastern, Kebab",Middle Eastern,Middle Eastern,4.5,"13310 137 Avenue, Edmonton",53.600273,-113.55118,82,347.26,17804764511,False,$$,Edmonton
The Keg Steakhouse + Bar,"Steakhouses, Bars, Seafood","Steakhouses, Bars, Seafood",NA,4.0,"13960 137th Avenue NW, Edmonton",53.5999,-113.56187,87,678.69,17804720707,False,$$$,Edmonton
Albert's Family Restaurant,Breakfast & Brunch,Breakfast & Brunch,NA,4.0,"13234 - 137 Ave, Edmonton",53.599705,-113.5499,13,348.28,17804566074,False,$$,Edmonton
Pho 39,Vietnamese,Vietnamese,Vietnamese,4.0,"13138 137 Avenue NW, Edmonton",53.599578,-113.547358,31,554.76,17804562997,False,$$,Edmonton
Fionn MacCool's,"Bars, Beer, Wine & Spirits, Gastropubs","Bars, Beer, Wine & Spirits, Gastropubs",NA,3.0,"13580 137th Avenue West, Edmonton",53.599861,-113.555342,35,391.39,17802291466,False,$$,Edmonton
Edo Japan,"Japanese, Fast Food",Fast Food,Japanese,3.5,"13322 137 Avenue NW, Edmonton",53.600295,-113.552857,13,318.36,17804783361,False,$,Edmonton
Papa Johns Pizza,Pizza,Pizza,NA,4.0,"13142 137 Avenue NW, Edmonton",53.599975,-113.547685,8,508.03,17804257979,False,$$,Edmonton
Mr Sub,Restaurants,Restaurants,NA,4.0,"13256 137 Avenue NW, Edmonton",53.599695,-113.549767,6,395.61,17804062800,False,$,Edmonton
Thai Express,Thai,Thai,Thai,3.5,"13680 137 Avene Northwest, Edmonton",53.59988,-113.55934,10,541.83,17804789838,False,$$,Edmonton
Burger King,"Fast Food, Burgers","Fast Food, Burgers",NA,2.0,"13338 137 Avenue NW, Edmonton",53.59994,-113.553107,15,357.02,17804060486,False,$,Edmonton
Tim Hortons,"Delis, Sandwiches, Coffee & Tea","Sandwiches, Coffee & Tea",NA,2.0,"13604 137 Avenue NW, Edmonton",53.599925,-113.556709,2,426.12,17804728018,False,$,Edmonton
Freshii,"Salad, Vegetarian, Fast Food",Fast Food,NA,1.5,"13320 137 Avenue NW, Edmonton",53.600256,-113.552722,3,323.45,15877734022,False,$,Edmonton
Phonatics Vietnamese Restaurant,Vietnamese,Vietnamese,Vietnamese,2.5,"13138 137 Ave, Edmonton",53.59977,-113.54782,12,514.82,17804562997,False,$$,Edmonton
The Bothy Wine & Whisky Bar,"Wine Bars, Scottish, Whiskey Bars","Wine Bars, Whiskey Bars",Scottish,4.5,"5482 Calgary Trail, Edmonton",53.491939,-113.497311,91,580.73,17807611761,False,$$,Edmonton
Lemongrass Cafe,"Vietnamese, Cafes",Cafes,Vietnamese,4.0,"10417 51 Avenue NW, Edmonton",53.487432,-113.498317,73,807.97,17804130088,False,$$,Edmonton
Sir Winston's Fish & Chips,"Fish & Chips, Seafood, British",Seafood,British,4.0,"10505 51st Avenue NW, Edmonton",53.48785,-113.50038,62,704.92,17804307170,False,$$,Edmonton
Tropika Malaysian Cuisine,"Malaysian, Thai",Malaysian,"Malaysian, Thai",3.5,"6004 - 104 Street, Edmonton",53.497062,-113.498078,71,673.34,17804396699,False,$$,Edmonton
Mythos Greek Taverna,Greek,Greek,Greek,4.0,"5524 Calgary Trail, Edmonton",53.492439,-113.498134,34,516.52,17807586161,False,$$$,Edmonton
High Voltage Food & Coffee Bar,"Greek, Mediterranean, Coffee & Tea",Coffee & Tea,"Greek, Mediterranean",4.5,"10387 63 Ave NW, Edmonton",53.499665,-113.496307,72,920.73,17804373202,False,$,Edmonton
Italian Centre Shop,"Grocery, International Grocery, Pizza",Pizza,NA,4.0,"5028 104A Street NW, Edmonton",53.487472,-113.499755,74,749.27,17809894869,False,$$,Edmonton
IPho and Grill,"Vietnamese, Chinese, Thai",Vietnamese,"Vietnamese, Chinese, Thai",4.0,"6104 104th Street NW, Edmonton",53.49857,-113.49829,23,764.76,17807609900,False,$$,Edmonton
Spinelli's Bar Italia,"Desserts, Coffee & Tea, Sandwiches","Desserts, Coffee & Tea, Sandwiches",NA,4.0,"5028 104A Street, Edmonton",53.48745,-113.49957,17,744.71,17809894869,False,$,Edmonton
Rae Mi Hyang,"Korean, Chinese, Asian Fusion",Korean,"Korean, Chinese, Asian Fusion",4.5,"10625 51 Avenue NW, Edmonton",53.48798,-113.505316,18,576.11,17807053966,False,$$,Edmonton
LETS Grill Restaurant,"Chinese, Kebab",Chinese,Chinese,4.0,"5926 104th Street NW, Edmonton",53.49665,-113.49802,20,643.85,17807051535,False,$$,Edmonton
Calgary Trail Noodle House Restaurant,"Chinese, Seafood, Noodles",Seafood,Chinese,4.0,"5730 104 Street NW, Edmonton",53.49463,-113.49815,17,548.08,17809888233,False,$$,Edmonton
South Silk Road,Chinese,Chinese,Chinese,4.0,"5552 Calgary Trail NW, Edmonton",53.49298,-113.49811,14,514.61,17807602222,False,$$,Edmonton
Asian Express Hot Pot,"Hot Pot, Asian Fusion",Hot Pot,Asian Fusion,3.5,"10412-63 Avenue NW, Edmonton",53.499767,-113.499707,40,840.38,17809883318,False,$$,Edmonton
Sushi Shop,Sushi Bars,Sushi Bars,NA,5.0,"5015 111 Street NW, Edmonton",53.48351,-113.51589,4,997.89,17807600020,False,$$,Edmonton
Hula Poke,Hawaiian,Hawaiian,NA,4.5,"5015 111 Street NW, Edmonton",53.48351,-113.51589,4,997.89,15874697314,False,$$,Edmonton
Backstairs Burger,Burgers,Burgers,NA,4.0,"11010 51 Avenue, Edmonton",53.48859,-113.51472,9,774.24,15874990576,False,$$,Edmonton
Sian City BBQ Bar,"Bars, Barbeque, Asian Fusion","Bars, Barbeque",Asian Fusion,4.0,"5728 - 104 Street NW, Edmonton",53.49479,-113.49806,5,536.37,17807609420,False,$$,Edmonton
Palabok House,Filipino,Filipino,Filipino,2.5,"10525 51 Avenue NW, Edmonton",53.48785,-113.50152,17,680.41,17804365047,False,$$,Edmonton
New Asian Village Express,Indian,Indian,Indian,4.0,"927 Southgate Centre, Edmonton",53.485358,-113.514326,7,1032.18,<NA>,False,$$,Edmonton
McDonald's,"Fast Food, Burgers, Coffee & Tea","Fast Food, Burgers, Coffee & Tea",NA,1.5,"6104 109th Street NW, Edmonton",53.49851,-113.51239,19,737.51,17804148428,False,$,Edmonton
Subway,"Sandwiches, Fast Food","Sandwiches, Fast Food",NA,3.5,"5904 104th St, Edmonton",53.49714,-113.49819,4,613.67,17804365289,False,$,Edmonton
Pharaohs Restaurant,"Egyptian, Mediterranean, Seafood",Seafood,Mediterranean,5.0,"5524 Calgary Trail NW, Edmonton",53.492436,-113.498248,1,509.11,17807583114,False,$,Edmonton
Dairy Queen Grill & Chill,"Fast Food, Burgers, Ice Cream & Frozen Yogurt","Fast Food, Burgers",NA,2.0,"10421 51st Ave South Trail Corners, Edmonton",53.487577,-113.498462,17,789.36,17804384044,False,$,Edmonton
Boss Pizza,Pizza,Pizza,NA,2.0,"10404 64 Avenue NW, Edmonton",53.500837,-113.49792,4,1002.74,17807602677,False,$,Edmonton
Potato Corner,Fast Food,Fast Food,NA,3.5,"5015 111 Street NW, Edmonton",53.485907,-113.512736,5,925.43,17805403499,False,$,Edmonton
Subway,"Fast Food, Sandwiches","Fast Food, Sandwiches",NA,3.0,"Southgate Centre, Edmonton",53.486674,-113.51629,2,997.89,17804372604,False,$,Edmonton
Home Style Donair,"Donairs, Burgers, Poutineries",Burgers,NA,3.0,"10425 51 Avenue, Edmonton",53.487715,-113.499689,4,729.05,17804350628,False,$,Edmonton
Sweet Basil Vietnamese Kitchen,Vietnamese,Vietnamese,Vietnamese,4.5,"5588 Windermere Boulevard, Edmonton",53.440012,-113.62019,33,477.69,17809880821,False,$,Edmonton
Buco Pizzeria + Vino Bar,"Pizza, Italian",Pizza,Italian,4.0,"1249 Windermere Way SW, Edmonton",53.43614,-113.61701,54,609.6,17805402826,False,$,Edmonton
Khazana Indian Express N Pizza,"Pizza, Indian",Pizza,Indian,4.0,"5592 Windermere Boulevard NW, Edmonton",53.43989,-113.62083,7,435.38,17803280088,False,$,Edmonton
Teriyaki Corner Japanese Bistro,Japanese,Japanese,Japanese,2.5,"Windermere Boulevard SW, Edmonton",53.438413,-113.617894,21,551.88,17804846325,False,$$,Edmonton
Pizza City Donair & Broast,"Donairs, Pizza, Halal",Pizza,NA,3.5,"5572 Windermere Boulevard SW, Edmonton",53.439646,-113.620152,29,457.74,17804379800,False,$$,Edmonton
Gangnam & CoCo,"Korean, Bubble Tea, Chicken Shop",Korean,Korean,5.0,"1109 Windermere Way SW, Edmonton",53.4384,-113.61816,4,560.72,17802504407,False,$$,Edmonton
Best Bite,"Pizza, Burgers, Donairs","Pizza, Burgers",NA,3.5,"324 Windermere Road NW, Edmonton",53.440474,-113.618623,17,592.44,17809890444,False,$$,Edmonton
Chopped Leaf windermere,"Salad, Soup, Sandwiches",Sandwiches,NA,3.5,"1229 Windermere Way, Edmonton",53.436715,-113.618072,5,578.06,17809895323,False,$$,Edmonton
Subway,"Sandwiches, Fast Food","Sandwiches, Fast Food",NA,2.5,"Windermere Crossing, Edmonton",53.438628,-113.618866,5,530.27,17803917004,False,$$,Edmonton
Atlas Steak + Fish,"Steakhouses, Seafood, Bars","Steakhouses, Seafood, Bars",NA,4.5,"8882 170 Street NW, Edmonton",53.522599,-113.623021,25,298.37,15874602423,False,$$,Edmonton
Cactus Club Cafe,"Canadian (New), Cocktail Bars",Cocktail Bars,Canadian (New),4.0,"8882 170th Street NW, Edmonton",53.524318,-113.618907,209,311.66,17804891002,False,$$,Edmonton
Jubilations,Dinner Theater,Dinner Theater,NA,3.5,"8882 170 Street, Edmonton",53.521579,-113.619586,58,24.23,17804842424,False,$$$,Edmonton
The Keg Steakhouse + Bar,"Steakhouses, Bars, Seafood","Steakhouses, Bars, Seafood",NA,4.5,"9960 170 Street NW, Edmonton",53.537479,-113.616114,79,1786.29,17804141114,False,$$$,Edmonton
Halley's Club,Supper Clubs,Supper Clubs,NA,4.0,"2710 - 8882 170 Street NW, Edmonton",53.523729,-113.621573,25,290.08,15874602428,False,$$$,Edmonton
L2 Grill,"Canadian (New), Breakfast & Brunch, Buffets",Canadian (New),Canadian (New),3.5,"Fantasyland Hotel, Edmonton",53.52244,-113.621871,37,202.1,17804445538,False,$$$,Edmonton
The Old Spaghetti Factory,Italian,Italian,Italian,3.5,"8882 170th Street, Edmonton",53.523466,-113.623804,91,371.59,17804442181,False,$$,Edmonton
Famoso Neapolitan Pizzeria,Pizza,Pizza,NA,4.0,"8882 170 Street, Edmonton",53.524431,-113.619221,57,323.44,17804870046,False,$$,Edmonton
Guru,Indian,Indian,Indian,4.0,"17021 100 Avenue, Edmonton",53.539317,-113.615715,148,1992.3,17804844300,False,$$$,Edmonton
Chachi's,"Sandwiches, Fast Food","Sandwiches, Fast Food",NA,4.5,"8882 170 Street NW, Edmonton",53.522884,-113.622204,25,248.05,17807052160,False,$$,Edmonton
Earls Kitchen + Bar,"Canadian (New), Cocktail Bars",Cocktail Bars,Canadian (New),3.5,"WEM 8882- 170th Street, Edmonton",53.523329,-113.623649,94,354.43,17804818279,False,$$,Edmonton
Moxies,"Canadian (New), Steakhouses, Lounges",Steakhouses,Canadian (New),3.0,"8882 170th Street, Edmonton",53.523573,-113.615585,64,229.03,17804846669,False,$$,Edmonton
Hudsons Canada's Pub,"Burgers, Pubs, Chicken Wings","Burgers, Pubs",NA,3.5,"West Edmonton Mall, Edmonton",53.523422,-113.623911,36,374.55,17804893035,False,$$,Edmonton
Five & Dive,"Dive Bars, Fish & Chips, Poutineries",Dive Bars,NA,3.5,"1650 Bourbon Street WEM, Edmonton",53.522098,-113.623936,19,317.48,17804443483,False,$$,Edmonton
Homefire Grill,"Canadian (New), Desserts, Pizza","Desserts, Pizza",Canadian (New),4.0,"18210 100 Avenue NW, Edmonton",53.538042,-113.635931,72,2143.0,17804898086,False,$$,Edmonton
Mogouyan,"Noodles, Chinese, Desserts",Desserts,Chinese,3.5,"8882 170 Street NW, Edmonton",53.523382,-113.624127,15,384.03,17802498221,False,$$,Edmonton
Match Eatery & Public House,"Sports Bars, Burgers, Pizza","Sports Bars, Burgers, Pizza",NA,3.5,"8882 170 Street NW, Edmonton",53.522314,-113.622431,14,229.04,17804442112,False,$$,Edmonton
Bubba Gump Shrimp Co.,Seafood,Seafood,NA,2.5,"2393-8882 Edmonton Mall 170 St Nw, Edmonton",53.522445,-113.62764,168,565.18,17802444867,False,$$,Edmonton
Jamaican Jerk Shak,Caribbean,Caribbean,Caribbean,5.0,"1532 - 8882 170 Street NW, Edmonton",53.521451,-113.619387,1,12.96,<NA>,False,$$,Edmonton
La Pagode,Vietnamese,Vietnamese,Vietnamese,4.0,"17020 90 Avenue, Edmonton",53.525799,-113.618757,40,476.62,17809301921,False,$$,Edmonton
Kathmandu Rasoi,"Hakka, Indian, Himalayan/Nepalese",Hakka,Indian,5.0,"17759 98A Avenue NW, Edmonton",53.533699,-113.628146,22,1476.64,17807560112,False,$$,Edmonton
MR MIKES SteakhouseCasual,"Steakhouses, Canadian (New)",Steakhouses,Canadian (New),2.5,"8882 170 Street, Edmonton",53.523307,-113.624286,92,388.62,17809301135,False,$$,Edmonton
Zesty Family Restaurant,"American, Breakfast & Brunch, Bars",Bars,American,4.5,"17620 100 Avenue NW, Edmonton",53.538358,-113.625272,7,1914.15,17804432525,False,$$,Edmonton
Tony Roma's,"Steakhouses, American, Barbeque","Steakhouses, Barbeque",American,2.5,"1640 Bourbon Street, Edmonton",53.523166,-113.624156,43,373.31,17804443105,False,$$,Edmonton
Chow Lucky Noodle Bar,"Noodles, Chinese",Noodles,Chinese,4.0,"8882 170 St NW, Edmonton",53.523573,-113.615585,5,44.96,<NA>,False,$$,Edmonton
Mikado - Westside,"Japanese, Sushi Bars",Sushi Bars,Japanese,3.5,"9942 170 Street NW, Edmonton",53.537197,-113.617707,76,1745.88,17804812202,False,$$,Edmonton
Meltwich,"Cheesesteaks, Burgers, Sandwiches","Cheesesteaks, Burgers, Sandwiches",NA,5.0,"8882 170 Street NW, Edmonton",53.52321,-113.61652,4,229.04,17804436358,False,$$,Edmonton
TSUJIRI,"Japanese, Cafes",Cafes,Japanese,4.5,"8882 170 St Nw, Edmonton",53.522475,-113.626362,6,483.09,<NA>,False,$$,Edmonton
Spinelli's Bar Italia,Cafes,Cafes,NA,4.0,"17010 90th Avenue, Edmonton",53.5265,-113.61645,14,583.27,17804544869,False,$$,Edmonton
Hoang Long Noodle House,"Vietnamese, Asian Fusion",Vietnamese,"Vietnamese, Asian Fusion",3.0,"West Edmonton Mall, Edmonton",53.522414,-113.621903,52,202.5,17804830891,False,$$,Edmonton
New York Fries,Fast Food,Fast Food,NA,4.0,"8882 - 170 Street, Edmonton",53.521387,-113.618877,1,27.88,17804861829,False,$$,Edmonton
Mai Vietamese Fusion,Vietnamese,Vietnamese,Vietnamese,3.0,"8882 170 Street NW, Edmonton",53.522436,-113.621884,33,202.63,17803287211,False,$$,Edmonton
Dookbaeki Korean Restaurant,"Korean, Soup",Korean,Korean,4.5,"8882 170 Street NW, Edmonton",53.523485,-113.624167,5,392.55,17802441906,False,$$,Edmonton
Japanese Village,"Japanese, Steakhouses, Seafood","Steakhouses, Seafood",Japanese,3.0,"1638-8882 170 Street NW, Edmonton",53.523502,-113.623856,15,376.7,17804226083,False,$$,Edmonton
Catcher Teppanyaki & Tea,"Japanese, Coffee & Tea, Sushi Bars","Coffee & Tea, Sushi Bars",Japanese,4.0,"1846-8882 170 Street NW, Edmonton",53.521755,-113.618678,1,44.84,<NA>,False,$$,Edmonton
Chez Cora,Breakfast & Brunch,Breakfast & Brunch,NA,3.5,"9977 - 178th Street NW, Edmonton",53.537108,-113.625619,49,1783.71,17804878898,False,$$,Edmonton
TC Sandwiches,"Vietnamese, Sandwiches",Sandwiches,Vietnamese,4.5,"8882 170 Street NW, Edmonton",53.523552,-113.615707,10,306.57,17804834661,False,$,Edmonton
New Asian Village,"Indian, Asian Fusion",Indian,"Indian, Asian Fusion",3.5,"17507 100 Avenue, Edmonton",53.53815,-113.62308,68,1867.08,17804886666,False,$$,Edmonton
Cake & Dessert Cafe,"Desserts, Cafes, Coffee & Tea","Desserts, Cafes, Coffee & Tea",NA,4.5,"8278 175 Street NW, Edmonton",53.515596,-113.624842,9,756.11,17804897250,False,$$,Edmonton
SPLASH POKE,"Hawaiian, Poke",Hawaiian,NA,4.5,"1604-8882 170 Street NW, Edmonton",53.522945,-113.625485,6,442.62,17804878677,False,$$,Edmonton
Earls Kitchen + Bar,"Canadian (New), Cocktail Bars",Cocktail Bars,Canadian (New),3.5,"170th Street, Edmonton",53.538905,-113.614075,50,1961.85,17804812222,False,$$,Edmonton
Sorrentino's West,Italian,Italian,Italian,3.5,"6867 170 Street NW, Edmonton",53.503952,-113.615225,42,1941.88,17804440524,False,$$$,Edmonton
NYF,Fast Food,Fast Food,NA,3.5,"8882-170th Street, Edmonton",53.522447,-113.621873,10,202.62,17804848535,False,$,Edmonton
Koryo Korean BBQ,"Korean, Fast Food",Fast Food,Korean,4.0,"8882 170 Street, Edmonton",53.523059,-113.620344,13,186.03,17804831239,False,$,Edmonton
Moxies,"Canadian (New), Steakhouses, Lounges",Steakhouses,Canadian (New),3.5,"17109 100 Ave NW, Edmonton",53.5384,-113.61952,42,1891.94,17804842040,False,$$,Edmonton
OPA! of Greece West Edmonton Mall - A,"Fast Food, Greek",Fast Food,Greek,3.0,"West Edmonton Mall, Edmonton",53.523038,-113.620268,12,181.92,17804864455,False,$,Edmonton
Jimmy the Greek,"Greek, Fast Food",Fast Food,Greek,4.5,"West Edmonton Mall, West Edmonton",53.523552,-113.615707,3,229.04,17804847666,False,$,Edmonton
JusFruit,"Bubble Tea, Juice Bars & Smoothies, Waffles",Juice Bars & Smoothies,NA,4.0,"8882 170 Street NW, Edmonton",53.52321,-113.61652,4,229.04,15874625127,False,$,Edmonton
Edo Japan,"Japanese, Fast Food",Fast Food,Japanese,3.0,"8882 170 Street NW, Edmonton",53.523573,-113.615585,9,165.01,17804441109,False,$$,Edmonton
Donair Station,"Mediterranean, Donairs, Halal",Mediterranean,Mediterranean,3.5,"17234 95 Avenue NW, Edmonton",53.53213,-113.62008,31,1183.08,17804895464,False,$,Edmonton
Gintaro Japanese Kitchen,Japanese,Japanese,Japanese,4.5,"11850 145 Avenue NW, Edmonton",53.608175,-113.527114,17,1731.53,17804738300,False,$,Edmonton
Yeg Burger,Burgers,Burgers,NA,4.0,"15131 121 Street NW, Edmonton",53.613341,-113.529668,56,1329.82,15874592874,False,$,Edmonton
Castle Bake,"Lebanese, Pizza",Pizza,NA,5.0,"16849 109 Street NW, Edmonton",53.63039,-113.51144,25,955.45,17804781821,False,$,Edmonton
Sahara Mediterranean Restaurant ,"Mediterranean, Lebanese, Turkish",Mediterranean,Mediterranean,4.0,"10807 Castle Downs Road, Edmonton",53.627811,-113.508041,32,824.38,17803711113,False,$$,Edmonton
Laziza,"Italian, Pizza",Pizza,Italian,4.5,"154-15277 Castle Downs Road NW, Edmonton",53.613639,-113.515375,25,981.55,17807578787,False,$$,Edmonton
Refinery Grill,"Breakfast & Brunch, Greek, Delis",Breakfast & Brunch,Greek,4.5,"15327 Castle Downs Road NW, Edmonton",53.615448,-113.516465,4,871.73,17803718910,False,$$,Edmonton
In & Out Donair,"Donairs, Mediterranean",Donairs,Mediterranean,2.5,"12110 161 Avenue NW, Edmonton",53.62233,-113.5341,4,1153.32,17802447776,False,$$,Edmonton
Chicago Joe's Pizza & Pub,"Pubs, Pizza","Pubs, Pizza",NA,3.5,"10425 158 Ave NW, Edmonton",53.61878,-113.50198,9,1046.76,17804573030,False,$$,Edmonton
Pita Pit,Sandwiches,Sandwiches,NA,4.0,"15351 Castle Downs Road NW, Edmonton",53.615489,-113.516465,1,866.96,17804066661,False,$$,Edmonton
Butter Chicken & More,Indian,Indian,Indian,4.5,"6875 Ad Astra Boulevard NW, Edmonton",53.606757,-113.515356,2,1740.14,17807618001,False,$$,Edmonton
Eat & Dip,"Donairs, Sandwiches, Fast Food","Sandwiches, Fast Food",NA,3.5,"6877 Ad Astra Boulevard Northwest, Edmonton",53.606787,-113.515491,9,1741.75,17802503435,False,$$,Edmonton
Ralph’s Fried Chicken,Chicken Shop,Chicken Shop,NA,5.0,"10807 Castle Downs Road, Edmonton",53.627702,-113.507777,2,824.38,18778071148,False,$$,Edmonton
El-fino Kabab And shawarma,"Syrian, Kebab",Syrian,NA,4.0,"11832 145 Avenue NW, Edmonton",53.607822,-113.526827,1,1753.42,17807600120,False,$$,Edmonton
Little Caesars Pizza,Pizza,Pizza,NA,2.0,"15349 Castledowns Rd, Edmonton",53.615297,-113.516369,6,843.83,17804570900,False,$$,Edmonton
McDonald's,"Fast Food, Burgers, Coffee & Tea","Fast Food, Burgers, Coffee & Tea",NA,2.0,"15333 Castle Downs Rd. NW, Edmonton",53.615458,-113.516465,8,882.7,17804148323,False,$,Edmonton
Babas Donair,"Donairs, Middle Eastern",Donairs,Middle Eastern,3.5,"103 - 10807 Castle Downs Road NW, Edmonton",53.627719,-113.507904,6,819.89,17804063006,False,$,Edmonton
Retro Burgers and Fried Chicken,"Chicken Wings, Chicken Shop, Burgers",Burgers,NA,4.0,"10807 Castle Downs Road NW, Edmonton",53.62786,-113.5082,1,824.38,<NA>,False,$,Edmonton
Knights Pub & Grill,"Pubs, Chicken Wings, Pizza","Pubs, Pizza",NA,2.5,"11860 145th Avenue NW, Edmonton",53.607488,-113.526828,17,1794.51,17804728505,False,$$,Edmonton
Mary Brown's Famous Chicken & Taters,"Chicken Shop, Fast Food, Halal",Fast Food,NA,3.0,"15303 Castle Downs Road NW, Edmonton",53.61536,-113.51603,1,787.9,17804722907,False,$$,Edmonton
Hadi Cocktail & Waffle,"Juice Bars & Smoothies, Waffles",Juice Bars & Smoothies,NA,5.0,"11842 145 Avenue Northwest, Edmonton",53.608283,-113.526783,1,1711.79,15874553394,False,$$,Edmonton
Subway,"Sandwiches, Fast Food","Sandwiches, Fast Food",NA,2.0,"Lakeside Landing Edmonton S/C, Edmonton",53.615,-113.51604,2,761.06,17804561395,False,$$,Edmonton
Mos Pizza & Donair,"Donairs, Pizza",Pizza,NA,1.0,"11832 145th Avenue NW, Edmonton",53.60786,-113.52655,3,1752.7,17804722525,False,$$,Edmonton
Alwadi Mediterranean Restaurant,Mediterranean,Mediterranean,Mediterranean,3.0,"11850 145 Ave NW, Edmonton",53.60817,-113.52711,3,1731.13,17807577826,False,$$,Edmonton
Orlando Pizza & Steakhouse,"Steakhouses, Pizza","Steakhouses, Pizza",NA,3.0,"15163 121 Street NW, Edmonton",53.613646,-113.529249,1,1286.08,17804571195,False,$$,Edmonton
Empire Grill,Indian,Indian,Indian,5.0,"4316 17 Street NW, Edmonton",53.479071,-113.369095,19,1513.03,17804622222,False,$$,Edmonton
Browns Socialhouse Tamarack,"Canadian (New), Pubs, Burgers","Pubs, Burgers",Canadian (New),3.5,"2511 17th Street NW, Edmonton",53.456639,-113.367124,51,1412.77,15875204665,False,$$,Edmonton
Popeyes Louisiana Chicken,"Fast Food, Chicken Wings",Fast Food,NA,3.5,"3773 17 Street NW, Edmonton",53.476738,-113.367346,65,1070.98,17804667789,False,$$,Edmonton
Oodle Noodle,Noodles,Noodles,NA,4.0,"2515 17 Street, Edmonton",53.456852,-113.368987,13,1442.11,17807564363,False,$$,Edmonton
Montana's,"Steakhouses, Comfort Food, Canadian (New)",Steakhouses,Canadian (New),2.5,"3816 17Th Street, Edmonton",53.477633,-113.37005,46,1251.65,17804628789,False,$$,Edmonton
Carl's Jr,"Fast Food, Burgers","Fast Food, Burgers",NA,3.5,"3791 17 Street, Edmonton",53.475945,-113.367921,15,1017.04,15874581566,False,$,Edmonton
Triple L,"Sushi Bars, Japanese",Sushi Bars,Japanese,4.5,"710 Tamarack Way NW, Edmonton",53.477187,-113.364915,4,1045.64,17804900298,False,$,Edmonton
AFC chicken,"Chicken Shop, Fast Food",Fast Food,NA,3.5,"2435 17 Street NorthWest, Edmonton",53.456259,-113.367001,17,1452.91,15874983487,False,$,Edmonton
Freshii,"Vegetarian, Fast Food, Salad",Fast Food,NA,4.5,"3924 17th St NW, Edmonton",53.478564,-113.37081,5,1365.36,17803061366,False,$,Edmonton
Streets of India,Indian,Indian,Indian,4.0,"1764 34 Avenue NW, Edmonton",53.468089,-113.370754,6,768.0,17802500320,False,$,Edmonton
BD Donair & Poutine,"Donairs, Pizza, Poutineries",Pizza,NA,5.0,"2569 17th Street NW, Edmonton",53.457346,-113.367965,1,1362.97,18255125595,False,$,Edmonton
Delicious Pho,"Vietnamese, Asian Fusion",Vietnamese,"Vietnamese, Asian Fusion",4.5,"3832 17 Street NW, Edmonton",53.477542,-113.370874,2,1275.79,17804400170,False,$,Edmonton
South Point Pizza,Pizza,Pizza,NA,3.5,"805 Tamarack Way NW, Edmonton",53.47943,-113.36567,11,1274.66,17802441444,False,$,Edmonton
Joey's Fish Shack,"Seafood, Salad, Fish & Chips",Seafood,NA,2.5,"2571 17 St Nw, Edmonton",53.457331,-113.368682,3,1354.03,17804404111,False,$,Edmonton
Swiss Chalet Rotisserie & Grill,"American, Comfort Food",American,American,2.0,"4004 17 St Nw, Edmonton",53.478519,-113.369713,8,1321.54,17804856531,False,$$,Edmonton
McDonald's,"Fast Food, Burgers","Fast Food, Burgers",NA,1.5,"835 Tamarack Way NW, Edmonton",53.4795,-113.36662,9,1323.28,17804651744,False,$$,Edmonton
Wok Box,Asian Fusion,Asian Fusion,Asian Fusion,2.5,"3922 17 Street, Edmonton",53.477948,-113.369128,14,1358.93,17804628269,False,$,Edmonton
Alberta Fried Chicken,"Burgers, Chicken Wings, Poutineries",Burgers,NA,3.0,"2435 17 Street NW, Edmonton",53.456259,-113.367001,1,1453.57,15874983493,False,$,Edmonton
The Golden Spoon,Indian,Indian,Indian,5.0,"3820 17 Street NW, Edmonton",53.477644,-113.370442,1,1270.08,17807612222,False,$,Edmonton
Jollibee,"Chicken Shop, Fast Food",Fast Food,NA,4.0,"881 Tamarack Way NW, Edmonton",53.480022,-113.36733,3,1397.89,18259020290,False,$,Edmonton
The Chopped Leaf,"Breakfast & Brunch, Salad, Soup",Breakfast & Brunch,NA,3.0,"3771 17 Street, Edmonton",53.471994,-113.368485,4,1408.5,15874630602,False,$$,Edmonton
Pho Vietnamese Noodle Soup,Vietnamese,Vietnamese,Vietnamese,2.5,"4426 17th Street NW, Edmonton",53.481803,-113.372224,18,1720.11,15874588787,False,$$,Edmonton
A&W,"Burgers, Fast Food","Burgers, Fast Food",NA,1.5,"895 Tamarack Way NW, Edmonton",53.47959,-113.368182,6,1377.16,15874632605,False,$$,Edmonton
Dairy Queen Grill & Chill,"Fast Food, Ice Cream & Frozen Yogurt, Burgers","Fast Food, Burgers",NA,3.0,"2547 17 St Nw, Edmonton",53.457399,-113.367032,5,1332.35,17804855118,False,$$,Edmonton
Mary Brown's Chicken and Taters,"Burgers, Fast Food","Burgers, Fast Food",NA,3.5,"2338-23rd Avenue, Edmonton",53.454205,-113.376128,6,1907.77,17802246947,False,$$,Edmonton
Meltwich Food,Fast Food,Fast Food,NA,5.0,"981 Tamarack Way NW, Edmonton",53.478028,-113.363736,1,1443.51,14372405314,False,$$,Edmonton
Panago Pizza,"Chicken Wings, Pizza, Food Delivery Services",Pizza,NA,2.5,"2431 17th St. NW, Edmonton",53.455602,-113.368732,2,1461.66,18663100001,False,$$,Edmonton
Subway,"Fast Food, Sandwiches","Fast Food, Sandwiches",NA,2.0,"3930-17th St NW, Edmonton",53.477954,-113.369143,1,1374.88,17804697820,False,$$,Edmonton
Flame Pizzeria,"Pizza, Indian, Chicken Wings",Pizza,Indian,3.0,"989 Tamarack Way NW, Edmonton",53.48044,-113.367842,1,1453.85,17809001414,False,$$,Edmonton
Domino's Pizza,Pizza,Pizza,NA,1.0,"4324 17 St NW, Edmonton",53.479086,-113.369095,1,1527.64,17804969912,False,$$,Edmonton
Mucho Burrito Fresh Mexican Grill,"Fast Food, Mexican",Fast Food,Mexican,1.5,"4328 17 Street NW, Edmonton",53.479501,-113.372814,2,1531.87,17804664409,False,$$,Edmonton
Choice Shawarma & Kabab,"Middle Eastern, Kebab, Donairs",Middle Eastern,Middle Eastern,2.5,"2423 Maple Road NW, Edmonton",53.47728,-113.36656,2,1144.93,15874565808,False,$$,Edmonton
Edo Japan,"Japanese, Fast Food",Fast Food,Japanese,3.0,"4320 17 Street NW, Edmonton",53.479066,-113.369095,2,1521.25,15874630733,False,$$,Edmonton
Ganesh Sweets,"Indian, Bakeries",Indian,Indian,3.0,"2336 23 Avenue NW, Edmonton",53.45455,-113.37635,2,1914.34,17805043444,False,$$,Edmonton
Cafe Bicyclette,French,French,French,4.0,"8627 91 Street NorthWest, Edmonton",53.522638,-113.466964,91,303.51,15875248090,False,$$,Edmonton
Bul Go Gi House,Korean,Korean,Korean,4.0,"8813 92 Street NW, Edmonton",53.52395,-113.46786,82,180.8,17804662330,False,$$,Edmonton
Ragazzi Bistro Italiano,"Pizza, Italian",Pizza,Italian,4.0,"8110-82 Avenue NW, Edmonton",53.51837,-113.45351,77,1194.3,17804140500,False,$$,Edmonton
Szechuan Sweet Mango,"Chinese, Vietnamese, Thai",Chinese,"Chinese, Vietnamese, Thai",4.0,"9120 82 Avenue NW, Edmonton",53.51839,-113.46856,55,779.16,17804628929,False,$$,Edmonton
Biera,"Beer Bar, Canadian (New)",Beer Bar,Canadian (New),4.0,"9570 - 76th Avenue, Edmonton",53.51263,-113.476381,80,1537.2,15875258589,False,$$,Edmonton
Duggan's Boundary Irish Pub,Gastropubs,Gastropubs,NA,4.0,"9013 88 Avenue NW, Edmonton",53.52316,-113.46669,51,230.99,17804654834,False,$$,Edmonton
Mill Creek Cafe,"Breakfast & Brunch, Cafes",Cafes,NA,4.0,"9562 - 82 Avenue, Edmonton",53.51843,-113.47638,76,991.36,17804395535,False,$$,Edmonton
Little Brick,"Cafes, Gift Shops",Cafes,NA,4.0,"10004  90th Street, Edmonton",53.54209,-113.46948,101,1870.05,17807051230,False,$$,Edmonton
Blue Chair Café,"Music Venues, Cafes, Vegan",Cafes,NA,3.5,"9624 76 Avenue NW, Edmonton",53.51253,-113.47803,65,1579.34,17809892861,False,$$,Edmonton
AUM Cafe,"Coffee & Tea, Sandwiches, Bakeries","Coffee & Tea, Sandwiches",NA,4.5,"155-8330 82 Avenue NW, Edmonton",53.52077,-113.4574,5,830.51,17804052780,False,$$,Edmonton
Korean Village Restaurant,"Korean, Buffets, Karaoke",Korean,Korean,4.0,"7729 85 Street NW, Edmonton",53.51429,-113.45779,13,1376.59,17804665666,False,$$,Edmonton
Green Ash Cafe,Cafes,Cafes,NA,4.5,"8903 83 Avenue NW, Edmonton",53.51867,-113.46464,4,745.64,15874092277,False,$$,Edmonton
Humpty's Family Restaurants,Breakfast & Brunch,Breakfast & Brunch,NA,3.0,"9555 82 Avenue NW, Edmonton",53.517779,-113.475978,12,1019.18,17804370727,False,$$,Edmonton
Hollywood Pizza & Donair,Pizza,Pizza,NA,4.0,"9542 87 Street NW, Edmonton",53.53263,-113.46132,12,900.71,17804626379,False,$$,Edmonton
Sushi Cafe Madang,"Sushi Bars, Japanese, Korean",Sushi Bars,"Japanese, Korean",4.5,"8903 83 Avenue NW, Edmonton",53.518849,-113.464687,4,744.44,15874092277,False,$$,Edmonton
Chick N Flames,Fast Food,Fast Food,NA,4.5,"8927B 82 Avenue NW, Edmonton",53.517824,-113.465419,4,847.25,17804404777,False,$$,Edmonton
French Toast,"Breakfast & Brunch, Buffets",Breakfast & Brunch,NA,1.5,"8937 82 Avenue NW, Edmonton",53.517721,-113.466593,4,849.12,17804681510,False,$$,Edmonton
Subway,"Sandwiches, Fast Food","Sandwiches, Fast Food",NA,3.5,"172 Bonnie Doon Shopping Center, Edmonton",53.52061,-113.45708,3,858.15,17804655660,False,$$,Edmonton
A&W,"Burgers, Fast Food","Burgers, Fast Food",NA,5.0,"8330 82nd Avenue, Edmonton",53.519075,-113.457853,1,937.74,17804667050,False,$$,Edmonton
Edo Japan,"Japanese, Fast Food",Fast Food,Japanese,2.5,"8330 82 Avenue NW, Edmonton",53.519867,-113.457714,3,880.66,17804661460,False,$$,Edmonton
Albert's Family Restaurant,"Fast Food, Breakfast & Brunch, American",Fast Food,American,2.5,"Bonnie Doon Mall, Edmonton",53.521199,-113.456971,7,825.4,<NA>,False,$$,Edmonton
China Court,"Food Court, Fast Food, Chinese",Fast Food,Chinese,2.5,"Bonnie Doon Mall, Edmonton",53.519904,-113.457544,6,885.98,17804691886,False,$,Edmonton
Mario's Poutine & Pizzeria,"Poutineries, Sandwiches, Pizza","Sandwiches, Pizza",NA,3.0,"8943 82 Avenue NW, Edmonton",53.517818,-113.467054,5,838.8,17804697525,False,$,Edmonton
Ralph's Handi Mart,"Fast Food, Personal Shopping",Fast Food,NA,3.5,"9508 87 Street NW, Edmonton",53.53193,-113.46146,6,826.7,17804655615,False,$,Edmonton
Taco Time,"Mexican, Fast Food",Fast Food,Mexican,1.5,"8330 82 Avenue NW, Edmonton",53.518225,-113.45635,4,949.88,17804697860,False,$,Edmonton
A&W,"Fast Food, Burgers","Fast Food, Burgers",NA,2.0,"Bonnie Doon Mall, Edmonton",53.519907,-113.457535,1,886.16,17804667050,False,$,Edmonton
Cohen Corner Cafe,Cafes,Cafes,NA,4.0,"9552 87 Sreet, Edmonton",53.53286,-113.46132,1,923.83,17807200484,False,$,Edmonton
Pizza 73,Pizza,Pizza,NA,1.0,"8106 82 Avenue NW, Edmonton",53.518382,-113.452482,2,1250.24,17804737373,False,$,Edmonton
Take Care Cafe,"Coffee & Tea, Cafes","Coffee & Tea, Cafes",NA,5.0,"9621 82 Avenue NW, Edmonton",53.51764,-113.47793,1,1097.19,18255125631,False,$,Edmonton
Crystal BBQ,"Vietnamese, Korean, Barbeque",Barbeque,"Vietnamese, Korean",2.5,"9645-101A Avenue, Edmonton",53.5432,-113.48417,5,2278.78,17804483636,False,$$,Edmonton
Ritchie Foods,Sandwiches,Sandwiches,NA,2.5,"9606 76 Avenue NW, Edmonton",53.51261,-113.47734,4,1566.15,17804331024,False,$$,Edmonton
Shine Bistro & Catering,"Restaurants, Caterers",Restaurants,NA,3.0,"9828 101 Ave NW, Edmonton",53.54282,-113.48743,1,2246.52,<NA>,False,$$,Edmonton
Thai Flavours,Thai,Thai,Thai,4.0,"2570 Guardian Rd NW, Edmonton",53.511326,-113.675537,57,939.41,17804847911,False,$$,Edmonton
Monty's Pizza,"American, Italian, Pizza",Pizza,"American, Italian",4.0,"1027 Potter Greens Drive NW, Edmonton",53.514063,-113.676693,47,1182.19,17804811999,False,$$,Edmonton
Original Joe's Restaurant & Bar,"American, Bars",Bars,American,3.5,"2512 Guardian Road NW, Edmonton",53.509565,-113.674581,35,818.59,17804860909,False,$$,Edmonton
Delhi 86,"Indian, Soup, Pizza",Pizza,Indian,5.0,"2470 Guardian Road NW, Edmonton",53.50939,-113.67564,8,751.36,17804448866,False,$$,Edmonton
The Kitchen Restaurant,"Breakfast & Brunch, Cafes, Seafood","Cafes, Seafood",NA,3.0,"300 E Lapotac Boulevard, Enoch",53.51012,-113.696946,29,1150.02,17809302679,False,$$,Edmonton
Good Buddy Granville,Chinese,Chinese,Chinese,4.0,"3026 Granville Drive NW, Edmonton",53.511743,-113.678813,21,892.89,17807528833,False,$$,Edmonton
Firezone Pizza & Donair,"Pizza, Donairs, Chicken Wings",Pizza,NA,3.5,"2490 Guardian Road NW, Edmonton",53.509036,-113.674793,24,765.96,17807560377,False,$$,Edmonton
Edo Japan,"Japanese, Fast Food",Fast Food,Japanese,4.5,"3004 Granville Dive NW, Edmonton",53.5117,-113.679268,4,879.73,<NA>,False,$$,Edmonton
Coco Deep Fried Chicken,"Korean, Chicken Shop",Korean,Korean,4.0,"3030 Granville Drive NW, Edmonton",53.511632,-113.678955,11,878.27,17787613392,False,$$,Edmonton
Popeyes Louisiana Chicken,"Fast Food, Chicken Wings",Fast Food,NA,2.5,"7201 Winterburn Road NW, Edmonton",53.507123,-113.687741,20,469.13,17802498442,False,$$,Edmonton
Classic Indian Restaurant & Bar,Indian,Indian,Indian,5.0,"2470 Guardian Road NW, Edmonton",53.509289,-113.675747,2,751.37,17804444455,False,$$,Edmonton
Saigon Flavours,Vietnamese,Vietnamese,Vietnamese,3.5,"2506 Guardian Road NW, Edmonton",53.509418,-113.674629,12,804.26,17804835988,False,$$,Edmonton
Teriyaki Corner Japanese Bistro,Japanese,Japanese,Japanese,3.5,"6270 199 Street NW, Edmonton",53.49498,-113.66576,32,1405.63,17804846325,False,$$,Edmonton
Golden Panda,Chinese,Chinese,Chinese,5.0,"2506 Guardian Road NW, Edmonton",53.509418,-113.674632,2,804.26,17804835988,False,$$,Edmonton
Wendy's,"Burgers, Fast Food","Burgers, Fast Food",NA,3.5,"7231 Winterburn Road, Edmonton",53.50828,-113.68782,3,528.74,<NA>,False,$$,Edmonton
Careit Urban Deli,Delis,Delis,NA,4.5,"5236 199 St NW, Edmonton",53.488616,-113.665058,4,2082.8,17804861123,False,$$,Edmonton
Denny's,"Breakfast & Brunch, Diners",Breakfast & Brunch,NA,5.0,"7231 Winterburn Rd NW, Edmonton",53.507808,-113.687894,1,529.27,17807576610,False,$$,Edmonton
Tim Horton's,"Coffee & Tea, Donuts, Sandwiches","Coffee & Tea, Sandwiches",NA,3.5,"3042 Granville Dr NW, Edmonton",53.511775,-113.679446,2,884.73,17803414420,False,$$,Edmonton
Subway,"Sandwiches, Fast Food","Sandwiches, Fast Food",NA,2.5,"2574 Guardian Rd NW, Edmonton",53.508497,-113.672059,5,865.56,17804812263,False,$,Edmonton
Papa Johns Pizza,"Chicken Wings, Pizza",Pizza,NA,2.5,"7223 Winterburn Rd. N W, Edmonton",53.507667,-113.687813,3,508.37,17804847276,False,$$$,Edmonton
Boston Pizza,Pizza,Pizza,NA,2.5,"6238 199 Street NW, Edmonton",53.494928,-113.667929,18,1416.59,17804841727,False,$$,Edmonton
KFC,"Chicken Wings, Fast Food, Chicken Shop",Fast Food,NA,1.0,"2474 Guardian Road NW, Edmonton",53.509187,-113.675652,7,740.45,17804445145,False,$$,Edmonton
Western Pizza,Pizza,Pizza,NA,1.0,"2490 Guardian Road, Edmonton",53.511531,-113.67485,1,982.59,17807612233,False,$$,Edmonton
Dairy Queen Grill & Chill,"Fast Food, Ice Cream & Frozen Yogurt, Burgers","Fast Food, Burgers",NA,2.5,"6214 199th St Nw, Edmonton",53.494277,-113.666492,6,1534.86,17804971177,False,$$,Edmonton
The Grill at Lewis Estates,"Desserts, Salad, Breakfast & Brunch",Desserts,NA,3.5,"260 Suder Greens Drive NW, Edmonton",53.5215,-113.68035,3,1950.49,17804894653,False,$$,Edmonton
Pizza 73,Pizza,Pizza,NA,2.0,"5240 199 Street, Edmonton",53.48862,-113.66494,8,2087.11,17804737373,False,$$,Edmonton
Reinette Cafe & Patisserie,"Desserts, Cafes, Coffee & Tea","Desserts, Cafes, Coffee & Tea",NA,4.5,"301 Woodvale Road W, Edmonton",53.467749,-113.431308,42,678.07,17805770974,False,$,Edmonton
Pho Hoan Pasteur,Vietnamese,Vietnamese,Vietnamese,3.5,"6566 - 28 Avenue NW, Edmonton",53.459642,-113.433174,35,291.02,15875209898,False,$$,Edmonton
The Punjab Paratha Hut,"Indian, Vegetarian",Indian,Indian,4.5,"6574 28 Avenue NW, Edmonton",53.459154,-113.433325,19,340.5,17802501881,False,$,Edmonton
O2's,"Sports Bars, Canadian (New)",Sports Bars,Canadian (New),3.5,"6550 28th Avenue NW, Edmonton",53.458389,-113.4326,15,393.26,17805400222,False,$,Edmonton
Wok This Way,"Vietnamese, Chinese",Vietnamese,"Vietnamese, Chinese",4.5,"4028 - 50 Street, Edmonton",53.476839,-113.417482,40,1890.67,17805770039,False,$$,Edmonton
Memphis Blues Barbeque House,"Barbeque, Whiskey Bars","Barbeque, Whiskey Bars",NA,3.0,"5317 23 Avenue NW, Edmonton",53.453472,-113.423808,109,1011.28,17804286328,False,$$,Edmonton
Royal Pizza,Pizza,Pizza,NA,3.5,"2906 66 St, Edmonton",53.457094,-113.432067,23,521.16,17804906337,False,$$,Edmonton
Pan's Fish & Chips,Fish & Chips,Fish & Chips,NA,3.5,"6530 28 Avenue NW, Edmonton",53.4602,-113.432321,14,207.35,17804406696,False,$$,Edmonton
Ricky's All Day Grill,Canadian (New),Canadian (New),Canadian (New),2.5,"6108 28th Avenue, Edmonton",53.459358,-113.427399,13,317.53,17807587676,False,$$,Edmonton
Denny's,"Breakfast & Brunch, Diners, American",Breakfast & Brunch,American,2.5,"5011 25th Ave, Edmonton",53.456285,-113.421494,25,840.95,17804503663,False,$,Edmonton
Manila Grill Express,Filipino,Filipino,Filipino,4.5,"6554 28 Avenue, Edmonton",53.458961,-113.432669,3,273.86,17807605222,False,$,Edmonton
Himalayan Village,"Indian, Chinese, Himalayan/Nepalese",Indian,"Indian, Chinese",4.0,"2331 66 Street North West, Edmonton",53.454358,-113.434279,10,654.01,17807579166,False,$,Edmonton
Noodle Xtreme,Vietnamese,Vietnamese,Vietnamese,3.5,"2605-66 Street, Edmonton",53.45707,-113.434036,17,520.86,17804698081,False,$$,Edmonton
Wendy's,"Fast Food, Burgers","Fast Food, Burgers",NA,3.0,"6510 - 28th Avenue, Edmonton",53.458485,-113.432506,6,288.82,17804501427,False,$,Edmonton
Yummy Chicken,Korean,Korean,Korean,3.5,"6111 28 Avenue NW, Edmonton",53.45881,-113.42728,9,387.4,17802509866,False,$,Edmonton
Woodvale Pizza & Hillview Pub,"Pizza, Pubs, Donairs","Pizza, Pubs",NA,4.0,"311 Woodvale Road W, Edmonton",53.468009,-113.432313,11,704.98,17804620468,False,$,Edmonton
Pho 4 Me,Vietnamese,Vietnamese,Vietnamese,4.5,"2809 Mill Woods Road, Edmonton",53.4591,-113.44745,7,1164.27,15877542804,False,$,Edmonton
Smitty's Family Restaurant,American,American,American,3.5,"211 2331- 66 Street NW, Edmonton",53.455777,-113.432123,9,665.62,17804611825,False,$,Edmonton
Arbys,"Fast Food, Sandwiches","Fast Food, Sandwiches",NA,4.5,"6535 28 Ave NW, Edmonton",53.458215,-113.432712,2,453.87,17804694774,False,$,Edmonton
Subway,"Sandwiches, Fast Food","Sandwiches, Fast Food",NA,2.0,"Millwoods MainSt SC, Edmonton",53.45908,-113.43327,5,361.23,17804616396,False,$,Edmonton
Tim Hortons,"Delis, Sandwiches",Sandwiches,NA,2.0,"6566 28 Avenue NW, Edmonton",53.459044,-113.430837,9,293.95,17804614250,False,$,Edmonton
Irie Foods,Caribbean,Caribbean,Caribbean,4.0,"2807 Mill Woods Road NW, Edmonton",53.4591,-113.44753,23,1169.34,17804141341,False,$$,Edmonton
Tim Hortons,"Sandwiches, Coffee & Tea","Sandwiches, Coffee & Tea",NA,3.5,"5204 23rd Ave, Edmonton",53.45503,-113.42227,14,909.87,17804699925,False,$,Edmonton
2nd Floor Cafe,Cafes,Cafes,NA,4.5,"2610 Hewes Way, Edmonton",53.4566,-113.4274,2,598.36,17809445926,False,$,Edmonton
Pizza 38,Pizza,Pizza,NA,4.0,"5403 38 Avenue NW, Edmonton",53.471165,-113.421688,14,1202.71,17804850038,False,$$,Edmonton
Boston Pizza,Pizza,Pizza,NA,2.0,"5228 23rd Ave NW, Edmonton",53.45494,-113.42293,33,892.33,17804615400,False,$$,Edmonton
Panago Pizza,"Pizza, Chicken Wings, Food Delivery Services",Pizza,NA,3.0,"6132 - 28th Avenue, Edmonton",53.45926,-113.42788,2,314.59,18663100001,False,$$,Edmonton
Edo Japan,"Japanese, Fast Food",Fast Food,Japanese,4.0,"2331 66 Street NW, Edmonton",53.455298,-113.429363,3,654.01,17804615133,False,$$,Edmonton
Punjab Chaat House,Indian,Indian,Indian,4.0,"1523 50 Street NW, Edmonton",53.445023,-113.418437,5,2014.02,17802496660,False,$$,Edmonton
Edo Japan,"Japanese, Fast Food",Fast Food,Japanese,4.0,"5509 23 Avenue NW, Edmonton",53.45332,-113.42572,5,979.73,17804980862,False,$$,Edmonton
Lee Garden Cuisine,Chinese,Chinese,Chinese,2.5,"317 Woodvale Road W, Edmonton",53.46785,-113.431999,7,711.84,17804508888,False,$$,Edmonton
New York Fries - Millwoods Town Centre,Fast Food,Fast Food,NA,5.0,"2331 66 Street NW, Edmonton",53.455732,-113.432066,1,669.92,17804690614,False,$$,Edmonton
Pizza Hut,"Pizza, Chicken Wings, Fast Food","Pizza, Fast Food",NA,2.0,"6504 28th Avenue, Edmonton",53.45886,-113.43248,4,345.4,17804483813,False,$$,Edmonton
Magma Donair Burgers & Subs,"Burgers, Donairs, Poutineries",Burgers,NA,4.0,"5513 23rd Avenue NW, Edmonton",53.453296,-113.425938,5,982.86,17802503662,False,$$,Edmonton
Tokyo Express,"Japanese, Sushi Bars",Sushi Bars,Japanese,2.5,"5220 23rd Avenue NW, Edmonton",53.4549,-113.42293,11,887.51,17804681668,False,$,Edmonton
Dairy Queen Grill & Chill,"Fast Food, Ice Cream & Frozen Yogurt, Burgers","Fast Food, Burgers",NA,2.0,"5403 23rd Ave, Edmonton",53.453376,-113.425007,18,989.53,17804628045,False,$$,Edmonton
Rolymie Bakery,"Bakeries, Filipino",Bakeries,Filipino,4.0,"1083 Knottwood Road E, Edmonton",53.44492,-113.44445,5,2078.89,17804501319,False,$$,Edmonton
Taco Time,Mexican,Mexican,Mexican,2.0,"2331 66 Street NW, Edmonton",53.454358,-113.434279,3,654.01,17804381214,False,$,Edmonton
Arby's,"Fast Food, Sandwiches","Fast Food, Sandwiches",NA,3.0,"6535 28 Avenue NW, Edmonton",53.458215,-113.432712,3,453.87,17804694774,False,$$,Edmonton
Supreme Pizza,Pizza,Pizza,NA,4.0,"1079 Knottwood Road E, Edmonton",53.445031,-113.442809,5,2024.75,17804851213,False,$,Edmonton
McDonald's,"Fast Food, Burgers, Coffee & Tea","Fast Food, Burgers, Coffee & Tea",NA,1.5,"5360-23rd Avenue, Edmonton",53.454781,-113.42407,11,873.8,17804148449,False,$,Edmonton
Harvey's,"Burgers, Fast Food, American","Burgers, Fast Food",American,3.0,"5303 23rd Avenue NW, Edmonton",53.453854,-113.423794,4,973.58,17803959982,False,$,Edmonton
La Tastebuds,"Canadian (New), Indian",Canadian (New),"Canadian (New), Indian",4.5,"5513 23 Avenue NW, Edmonton",53.4533,-113.42594,3,982.86,17807575522,False,$,Edmonton
A&W,"Fast Food, Burgers","Fast Food, Burgers",NA,2.5,"2420 50 Street NW, Edmonton",53.455914,-113.42139,3,875.56,17804504067,False,$,Edmonton
Mary Brown's Famous Chicken & Taters,"Fast Food, Canadian (New)",Fast Food,Canadian (New),3.0,"4004 50 Street NW, Edmonton",53.47643,-113.41778,19,1838.94,17804906211,False,$,Edmonton
Burger King,Fast Food,Fast Food,NA,2.0,"6521 28 Avenue NW, Edmonton",53.458215,-113.431871,6,440.4,17804632322,False,$,Edmonton
Subway,"Fast Food, Sandwiches","Fast Food, Sandwiches",NA,1.0,"Mill Woods Town Centre, Edmonton",53.454356,-113.434264,1,689.96,17804850077,False,$,Edmonton
A&W,"Fast Food, Burgers","Fast Food, Burgers",NA,1.0,"2331 66th Street NW, Edmonton",53.454358,-113.434279,1,654.01,17804509814,False,$,Edmonton
New York Fries,Fast Food,Fast Food,NA,3.0,"Millwoods Town Centre, Edmonton",53.454533,-113.434444,2,837.96,14163563066,False,$,Edmonton
Classic Pizza Donair & Sub,"Donairs, Pizza, Burgers","Pizza, Burgers",NA,2.5,"2811 Mill Woods Road NW, Edmonton",53.4591,-113.44737,7,1158.85,17804635517,False,$,Edmonton
The Workshop Eatery,Canadian (New),Canadian (New),Canadian (New),4.0,"2003 - 91 Street SW, Edmonton",53.4158,-113.47997,174,1150.62,17807052205,False,$$,Edmonton
Brown Butter cafe,Cafes,Cafes,NA,4.5,"1528 91 St SW, Edmonton",53.41891,-113.478979,40,1068.96,17807529900,False,$$,Edmonton
Mini Mango,"Vietnamese, Thai, Gluten-Free",Vietnamese,"Vietnamese, Thai",4.0,"1056 91 Street SW, Edmonton",53.423486,-113.47641,74,1108.5,17807566464,False,$$,Edmonton
Zaika Bistro & Bar,"Indian, Buffets",Indian,Indian,4.0,"2303 Ellwood Drive SW, Edmonton",53.430491,-113.471045,95,1538.24,17804628722,False,$$,Edmonton
Original Joe's Restaurant & Bar,"Bars, American",Bars,American,4.0,"9246 Ellerslie Road SW, Edmonton",53.425238,-113.475344,36,1301.49,17804856578,False,$$,Edmonton
Saffron Indian Cuisine,"Indian, Buffets",Indian,Indian,4.0,"469 Parsons Road SW, Edmonton",53.42971,-113.47936,45,1719.51,17804907088,False,$$,Edmonton
Kurry Kebab,Indian,Indian,Indian,4.5,"1060 91 Street SW, Edmonton",53.42335,-113.476389,31,1098.37,17807610150,False,$$,Edmonton
Wing Chicx,Korean,Korean,Korean,4.0,"2912 Ellwood Drive SW, Edmonton",53.429881,-113.478262,65,1706.55,17804662852,False,$$,Edmonton
Woodshed Burgers,Burgers,Burgers,NA,4.0,"2307 Ellwood Drive SW, Edmonton",53.43054,-113.47086,33,1528.36,15876359663,False,$$,Edmonton
Teacup2go,"Juice Bars & Smoothies, Bubble Tea, Cafes","Juice Bars & Smoothies, Cafes",NA,4.5,"2960 Ellwood Drive SW, Edmonton",53.42995,-113.47873,19,1732.12,17804888228,False,$,Edmonton
Fresh Healthy Cafe,"Juice Bars & Smoothies, Cafes","Juice Bars & Smoothies, Cafes",NA,5.0,"1052 91 Street SW, Edmonton",53.423225,-113.474546,5,1120.51,15874146835,False,$,Edmonton
The Canadian Brewhouse,"Sports Bars, Canadian (New)",Sports Bars,Canadian (New),3.0,"9538 Ellerslie Road Southwest, Edmonton",53.425704,-113.478587,87,1376.29,17804692232,False,$$,Edmonton
Teriyaki Corner Japanese Bistro,Japanese,Japanese,Japanese,3.5,"1064-91 Street SW, Edmonton",53.423222,-113.476717,30,1107.8,17804846325,False,$$,Edmonton
Tien Tuyen,Vietnamese,Vietnamese,Vietnamese,3.5,"2619 Ellwood Drive SW, Edmonton",53.42916,-113.47357,27,1470.07,17804698436,False,$$,Edmonton
Kami,Japanese,Japanese,Japanese,4.0,"2915 Ellwood Dr SW, Edmonton",53.4288,-113.47872,15,1650.92,17804895949,False,$$,Edmonton
Ellwood Pizza,Pizza,Pizza,NA,4.0,"2431 Ellwood Dr SW, Edmonton",53.43046,-113.47176,10,1553.61,17804650014,False,$$,Edmonton
Spot On Donair and Kebab,"Donairs, Fast Food",Fast Food,NA,3.0,"9516 Ellerslie Rd SW, Edmonton",53.425012,-113.478852,17,1340.37,17804654625,False,$,Edmonton
Yeg Pizza on Wheels,Pizza,Pizza,NA,4.5,"2976 Ellwood Drive SW, Edmonton",53.4301,-113.478769,3,1746.08,17807072219,False,$,Edmonton
Mucho Burrito Fresh Mexican Grill,Mexican,Mexican,Mexican,2.5,"1132 91 Street SW, Edmonton",53.42357,-113.47478,17,1030.21,17804622288,False,$$,Edmonton
Second Cup,Cafes,Cafes,NA,4.0,"9238 Ellerslie Road, Edmonton",53.425237,-113.475388,5,1284.67,17804690738,False,$,Edmonton
Izakaya Tenkuu,Japanese,Japanese,Japanese,5.0,"2980 Ellwood Drive SW, Edmonton",53.43009,-113.4789,1,1749.01,17803341700,False,$,Edmonton
Pho Hoa,Vietnamese,Vietnamese,Vietnamese,2.5,"2963 Ellwood Drive SW, Edmonton",53.429061,-113.478957,35,1662.75,17804858860,False,$$,Edmonton
Wok Box,"Asian Fusion, Fast Food, Chinese",Fast Food,"Asian Fusion, Chinese",2.0,"9228 Ellerslie Road SW, Edmonton",53.425232,-113.475273,13,1273.02,17804859705,False,$$,Edmonton
Mary Brown's Famous Chicken & Taters!,Fast Food,Fast Food,NA,3.5,"1042 91st Street SW, Edmonton",53.427637,-113.473552,15,1324.84,17807567860,False,$$,Edmonton
Prime Time Donair and Kebab,"Donairs, Kebab, Poutineries",Donairs,NA,3.5,"1128 91 Street SW, Edmonton",53.423535,-113.474953,4,1036.39,17809892416,False,$$,Edmonton
Pizza 73,Pizza,Pizza,NA,2.0,"1109 Summerside Drive SW, Edmonton",53.423843,-113.462124,8,706.68,17804737373,False,$$,Edmonton
Panago Pizza,"Pizza, Chicken Wings, Food Delivery Services",Pizza,NA,4.0,"932 - 91st Street SW, Edmonton",53.424282,-113.474296,1,1156.96,18663100001,False,$$,Edmonton
Annam South Indian Cuisine,Indian,Indian,Indian,5.0,"2935 Ellwood Drive SW, Edmonton",53.428718,-113.478557,1,1615.9,15874983275,False,$$,Edmonton
Golden Taste Restaurant,Chinese,Chinese,Chinese,3.0,"2940-2944 Ellwood Drive SW, Edmonton",53.430236,-113.478472,17,1746.61,17804306380,False,$$,Edmonton
Joey's Seafood Restaurant Ellerslie,"Seafood, Fish & Chips, Mexican",Seafood,Mexican,1.0,"9238 Ellerslie Road SW, Edmonton",53.426073,-113.476228,2,1284.64,15876353300,False,$$,Edmonton
Calabash Cafe,"Cafes, Desserts, Breakfast & Brunch","Cafes, Desserts",NA,3.5,"228 91 Street SW, Edmonton",53.431732,-113.469209,4,1633.73,17809077302,False,$$,Edmonton
KFC,"Fast Food, Chicken Wings, Chicken Shop",Fast Food,NA,1.5,"9260 Ellerslie Road SW, Edmonton",53.425397,-113.47662,9,1257.43,17804851474,False,$$,Edmonton
Pizza Hut ,"Chicken Wings, Pizza, Fast Food","Pizza, Fast Food",NA,1.0,"9224 Ellerslie Road SW, Edmonton",53.426061,-113.475736,9,1270.46,17804683150,False,$$,Edmonton
Suvai Dosa’s,Indian,Indian,Indian,4.5,"7 - 445 Parsons Road, Edmonton",53.43003,-113.47936,4,1746.88,17804637228,False,$$,Edmonton
Freshii,"Fast Food, Vegetarian, Salad",Fast Food,NA,3.0,"9240 Ellerslie Rd SW, Edmonton",53.425235,-113.475288,6,1292.35,17808092114,False,$$,Edmonton
Tim Horton's,"Coffee & Tea, Breakfast & Brunch",Coffee & Tea,NA,1.5,"862 Parsons Road SW, Edmonton",53.426,-113.4804,5,1499.02,17804850451,False,$$,Edmonton
Taco Bell,"Fast Food, Mexican",Fast Food,Mexican,1.5,"9260 Ellerslie Road SW, Edmonton",53.425244,-113.475475,8,1259.02,17804851474,False,$$,Edmonton
Quiznos,"Sandwiches, Soup, Pizza","Sandwiches, Pizza",NA,2.5,"9264 Ellerslie Rd SW, Edmonton",53.42517,-113.479283,3,1373.64,17804691801,False,$,Edmonton
Summerside Pizza and Donair,"Pizza, Donairs, Indian",Pizza,Indian,2.5,"2956 Ellwood Drive SW, Edmonton",53.42981,-113.47891,16,1721.92,17807611314,False,$,Edmonton
Rasam Indian Cuisine,"Indian, Vegetarian, Meat Shops",Indian,Indian,3.5,"248 91 Street SW, Edmonton",53.43172,-113.46879,2,1598.76,17804663535,False,$,Edmonton
Curry Corner,Indian,Indian,Indian,4.5,"616 Riverbend Square NW, Edmonton",53.468272,-113.586991,43,1337.78,17804381008,False,$$,Edmonton
Hart's Table & Bar,Canadian (New),Canadian (New),Canadian (New),3.5,"14229 23 Avenue, Edmonton",53.453843,-113.566585,122,831.58,17804884278,False,$$,Edmonton
Oliveto Trattoria,"Italian, Wine Bars",Wine Bars,Italian,4.5,"500 Riverbend Square, Edmonton",53.469557,-113.586943,39,1396.22,17804356411,False,$$,Edmonton
Original Joe's Restaurant & Bar,"Bars, American",Bars,American,3.5,"2323 Rabbit Hill Rd NW, Edmonton",53.454708,-113.565315,48,933.31,17809885637,False,$$,Edmonton
Famoso Neapolitan Pizza,"Pizza, Italian",Pizza,Italian,4.0,"14123 23 Avenue NW, Edmonton",53.452957,-113.562864,27,1094.34,17804368799,False,$$,Edmonton
Mai Mai Viet Street Kitchen,Vietnamese,Vietnamese,Vietnamese,4.5,"14211 23 Avenue NW, Edmonton",53.453323,-113.566658,9,858.85,<NA>,False,$$,Edmonton
Remedy Cafe,Cafes,Cafes,NA,3.5,"1707 Towne Centre Boulevard NW, Edmonton",53.444845,-113.577646,42,1429.47,17809884010,False,$$,Edmonton
Amore Pasta,Italian,Italian,Italian,3.5,"14016 23rd Avenue, Edmonton",53.454285,-113.560119,19,1002.91,17804864869,False,$$,Edmonton
Saigon Cuisine,Vietnamese,Vietnamese,Vietnamese,3.5,"508 Riverbend Square, Edmonton",53.467709,-113.586659,29,1272.36,17804361188,False,$$,Edmonton
Kokoriko,"Chicken Wings, Korean, Fast Food",Fast Food,Korean,4.5,"1713 Towne Centre Blvd NW, Edmonton",53.44521,-113.5775,10,1383.35,<NA>,False,$$,Edmonton
Mary Browns,"Chicken Wings, Fast Food, Sandwiches","Fast Food, Sandwiches",NA,4.0,"2347 Rabbit Hill Road NW, Edmonton",53.455202,-113.564942,8,866.96,15874694564,False,$$,Edmonton
Boardwalk,Burgers,Burgers,NA,5.0,"14203 23 Avenue NW, Edmonton",53.45365,-113.566415,1,852.43,15874691913,False,$$,Edmonton
Mac T Donair & Shawarma,"Donairs, Middle Eastern, Burgers",Burgers,Middle Eastern,4.0,"14245 23 Avenue NW, Edmonton",53.453309,-113.567835,13,796.83,<NA>,False,$$,Edmonton
Boston Pizza,Pizza,Pizza,NA,3.5,"378 Bulyea Road NW, Edmonton",53.475578,-113.574389,20,1997.66,17804318431,False,$$,Edmonton
Towne Chef Indian Fusion,"Indian, Chinese",Indian,"Indian, Chinese",4.5,"5233 Terwillegar Boulevard NW, Edmonton",53.444572,-113.578307,6,1461.07,15874992225,False,$$,Edmonton
Tim Hortons,"Sandwiches, Coffee & Tea","Sandwiches, Coffee & Tea",NA,2.5,"2309 Rabbit Hill Road NW, Edmonton",53.454534,-113.564477,15,921.45,17804324451,False,$,Edmonton
Papa Johns Pizza,Pizza,Pizza,NA,4.0,"14030  23Rd Ave, Edmonton",53.45482,-113.56339,6,982.44,17804397220,False,$$,Edmonton
Indian Villa,"Indian, Chinese",Indian,"Indian, Chinese",4.0,"448 Riverbend Square NW, Edmonton",53.468285,-113.584082,1,1258.69,17807602799,False,$$,Edmonton
Edo Japan,"Japanese, Fast Food",Fast Food,Japanese,3.5,"14307 23 Avenue NW, Edmonton",53.45367,-113.56816,7,748.53,17804309011,False,$,Edmonton
KFC,"Fast Food, Chicken Wings, Chicken Shop",Fast Food,NA,2.5,"14311 23rd Avenue, Edmonton",53.45373,-113.56824,11,746.76,17809888000,False,$,Edmonton
PhoXpress Vietnamese Noodle House,Vietnamese,Vietnamese,Vietnamese,3.0,"436 Riverbend Square NW, Edmonton",53.468551,-113.584228,23,1289.74,17807052280,False,$$,Edmonton
Oodle Noodle,Asian Fusion,Asian Fusion,Asian Fusion,2.5,"2305 Rabbit Hill Rd NW, Edmonton",53.4546,-113.565405,5,879.04,17804354222,False,$$,Edmonton
Subway,"Sandwiches, Fast Food","Sandwiches, Fast Food",NA,1.5,"14257 23rd Ave, Edmonton",53.453835,-113.568023,5,797.48,17804338036,False,$,Edmonton
A&W,Fast Food,Fast Food,NA,3.0,"470 Riverbend Square Road Northwest, Edmonton",53.468647,-113.583784,6,1289.78,17804324384,False,$,Edmonton
McDonald's,"Burgers, Fast Food, Coffee & Tea","Burgers, Fast Food, Coffee & Tea",NA,2.5,"494 Riverbend Square, Edmonton",53.469076,-113.586355,11,1398.55,17804148403,False,$,Edmonton
Hanako Sushi,"Sushi Bars, Desserts, Ramen","Sushi Bars, Desserts",NA,5.0,"2341 Rabbit Hill Road NW, Edmonton",53.455387,-113.56443,1,893.02,18254801923,False,$,Edmonton
Ricky's Breakfast Café,"Breakfast & Brunch, Cafes, Desserts","Cafes, Desserts",NA,3.5,"14111 23 Avenue NW, Edmonton",53.452885,-113.562235,2,1134.79,15874692804,False,$,Edmonton
Dairy Queen Grill & Chill,"Ice Cream & Frozen Yogurt, Fast Food, Burgers","Fast Food, Burgers",NA,2.0,"14151 23 Ave Nw, Edmonton",53.453604,-113.563169,6,1043.34,17804393742,False,$$,Edmonton
Taco Bell,Fast Food,Fast Food,NA,1.5,"14311 23rd Avenue, Edmonton",53.453835,-113.570187,7,746.76,17809888000,False,$$,Edmonton
Domino's Pizza,"Chicken Wings, Pizza, Sandwiches","Pizza, Sandwiches",NA,2.0,"420 Riverbend Square NW, Edmonton",53.468434,-113.584762,6,1290.65,17804969917,False,$$,Edmonton
Tokyo Express,Japanese,Japanese,Japanese,1.5,"2341 Rabbit Hill Road, Edmonton",53.454773,-113.565323,13,849.59,17809886883,False,$$,Edmonton
Osmow's,Mediterranean,Mediterranean,Mediterranean,2.5,"468 Riverbend Square NW, Edmonton",53.468451,-113.583328,2,1259.43,15874146818,False,$$,Edmonton
Pizza 73,Pizza,Pizza,NA,3.0,"107 Haddow Close NW, Edmonton",53.45863,-113.59119,2,920.07,17804737373,False,$$,Edmonton
Pizza Box,Pizza,Pizza,NA,3.5,"512 Riverbend Square NW, Edmonton",53.469565,-113.586978,5,1344.57,17804367271,False,$$,Edmonton
Donna's Eatery,Sandwiches,Sandwiches,NA,4.0,"21516 115 Ave NW, Edmonton",53.56629,-113.68973,47,1729.58,17804298894,False,$,Edmonton
Winter's Restaurant & Bar,Diners,Diners,NA,1.5,"10650 Winterburn Road NW, Edmonton",53.55028,-113.689258,4,827.3,17804473656,False,$,Edmonton
Big 'n' Juicy Dawgs,Hot Dogs,Hot Dogs,NA,3.0,"304 - Westmount Centre, Edmonton",53.562477,-113.567268,1,860.35,<NA>,False,$,Edmonton
Chefs Butter Chicken,Indian,Indian,Indian,5.0,"19926 Lessard Road NW, Edmonton",53.47851,-113.67237,8,980.72,17804132231,False,$,Edmonton
Yummy Kitchen,Chinese,Chinese,Chinese,4.0,"20035 Lessard Road NW, Edmonton",53.47653,-113.671772,4,721.91,17802509888,False,$,Edmonton
Spice N Rice,"Caribbean, African",Caribbean,"Caribbean, African",4.5,"20020 Lessard Road NW, Edmonton",53.478429,-113.67331,2,981.39,17806163364,False,$,Edmonton
Royal Pizza,"Pizza, Italian",Pizza,Italian,5.0,"20024 Lessard Road NW, Edmonton",53.4784,-113.673279,1,977.8,17807579699,False,$,Edmonton
