Name,Categories,Cuisine Types,Nationalities,Rating,Address,Res_Latitude,Res_Longitude,Reviews,Distance,Phone,Closed,Price,City
Pai Northern Thai Kitchen,Thai,Thai,Thai,4.5,"18 Duncan Street, Toronto",43.64784,-79.38872,3522,2400.97,14169014724,False,$$,Toronto
Richmond Station,Canadian (New),Canadian (New),Canadian (New),4.5,"1 Richmond Street W, Toronto",43.651373,-79.379285,912,3222.05,16477481444,False,$$$,Toronto
Mildred's Temple Kitchen,"Breakfast & Brunch, Canadian (New)",Breakfast & Brunch,Canadian (New),4.0,"85 Hanna Avenue, Toronto",43.639911,-79.420424,1044,518.59,14165885695,False,$$,Toronto
Gusto 101,Italian,Italian,Italian,4.0,"101 Portland Street, Toronto",43.645002,-79.400309,1159,1434.36,14165049669,False,$$,Toronto
Byblos,"Mediterranean, Middle Eastern",Mediterranean,"Mediterranean, Middle Eastern",4.5,"11 Duncan Street, Toronto",43.647546,-79.388123,917,2439.99,16476600909,False,$$$$,Toronto
Lee,Asian Fusion,Asian Fusion,Asian Fusion,4.0,"497 Richmond Street W, Toronto",43.647191,-79.39935,723,1543.92,14165047867,False,$$$,Toronto
Khao San Road,Thai,Thai,Thai,4.0,"11 Charlotte Street, Toronto",43.646412,-79.39362,1710,1984.69,16473525773,False,$$,Toronto
Mamakas Taverna,"Greek, Mediterranean",Greek,"Greek, Mediterranean",4.0,"80 Ossington Avenue, Toronto",43.64596,-79.41986,242,229.83,14165195996,False,$$$,Toronto
Bar Isabel,"Spanish, Tapas Bars",Tapas Bars,NA,4.0,"797 College Street, Toronto",43.654631,-79.420774,472,1174.72,14165322222,False,$$$,Toronto
Canoe,Canadian (New),Canadian (New),Canadian (New),4.0,"66 Wellington Street  W, Toronto",43.646954,-79.382159,749,2907.85,14163640054,False,$$$$,Toronto
Dzo Viet Eatery,Vietnamese,Vietnamese,Vietnamese,4.0,"308 Dundas Street W, Toronto",43.65445,-79.39178,162,2401.32,16473468843,False,$$,Toronto
Antler Kitchen & Bar,Canadian (New),Canadian (New),Canadian (New),4.5,"1454 Dundas Street West, Toronto",43.64985,-79.43059,290,1173.96,16473458300,False,$$$,Toronto
KINKA IZAKAYA ORIGINAL,"Japanese, Pubs",Pubs,Japanese,4.0,"398 Church Street, Toronto",43.660424,-79.3789,1824,3630.25,14169770999,False,$$,Toronto
Imm Thai Kitchen,"Thai, Noodles",Thai,Thai,4.5,"651 College Street, Toronto",43.65484,-79.41598,156,1190.79,14165326888,False,$$,Toronto
Bar Raval,"Spanish, Tapas/Small Plates, Cocktail Bars",Cocktail Bars,NA,4.0,"505 College Street, Toronto",43.655843,-79.409943,323,1445.5,16473448001,False,$$$,Toronto
The Keg Steakhouse + Bar - York Street,"Steakhouses, Bars, Seafood","Steakhouses, Bars, Seafood",NA,4.0,"165 York Street, Toronto",43.650011,-79.383959,310,2820.9,14167031773,False,$$$,Toronto
Buca,Italian,Italian,Italian,4.0,"604 King Street W, Toronto",43.64462,-79.40045,456,1425.18,14168651600,False,$$$,Toronto
Ramen Isshin,Ramen,Ramen,NA,4.5,"421 College Street, Toronto",43.65634,-79.40689,824,1615.29,14163674013,False,$$,Toronto
La Banane,"French, Seafood, Bistros",Seafood,French,4.5,"227 Ossington Avenue, Toronto",43.64904,-79.4203,157,562.54,14165516263,False,$$$$,Toronto
Jacobs & Co. Steakhouse,Steakhouses,Steakhouses,NA,4.5,"12 Brant Street, Toronto",43.645399,-79.398028,618,1620.5,14163660200,False,$$$$,Toronto
Bellwoods Brewery,"Breweries, Canadian (New)",Breweries,Canadian (New),4.0,"124-126 Ossington Avenue, Toronto",43.64713,-79.42015,353,358.85,14165354586,False,$$,Toronto
Union,"French, Wine Bars",Wine Bars,French,4.0,"72A Ossington Avenue, Toronto",43.64577,-79.41974,244,210.33,14168500093,False,$$$,Toronto
JaBistro,"Japanese, Sushi Bars",Sushi Bars,Japanese,4.0,"222 Richmond Street W, Toronto",43.649801,-79.388171,591,2486.13,16477480222,False,$$$,Toronto
Mira,Peruvian,Peruvian,Peruvian,4.5,"420A Wellington Street W, Toronto",43.64417,-79.39639,275,1753.87,16479513331,False,$$,Toronto
Chubby's Jamaican Kitchen,Caribbean,Caribbean,Caribbean,4.0,"104 Portland Street, Toronto",43.64532,-79.40066,362,1404.11,14167928105,False,$$,Toronto
LOCAL Public Eatery - Liberty Village,"Sports Bars, Breakfast & Brunch, American",Sports Bars,American,4.0,"171 E Liberty Street, Toronto",43.638469,-79.419212,309,650.36,14169018351,False,$$,Toronto
Alo Restaurant,"Bars, French",Bars,French,4.5,"163 Spadina Avenue, Toronto",43.64851,-79.39584,350,1844.12,14162602222,False,$$$$,Toronto
Café Polonez,Polish,Polish,NA,4.5,"195 Roncesvalles Avenue, Toronto",43.64514,-79.44831,292,2435.33,14165328432,False,$$,Toronto
Cactus Club Cafe,"Cocktail Bars, Canadian (New)",Cocktail Bars,Canadian (New),4.0,"77 Adelaide Street W, Toronto",43.649504,-79.382518,611,2922.17,16477482025,False,$$,Toronto
Aloette,"French, Bistros, Diners",French,French,4.5,"163 Spadina Avenue, Toronto",43.648558,-79.395963,312,1844.59,14162603444,False,$$$,Toronto
King Taps,"Canadian (New), Cocktail Bars",Cocktail Bars,Canadian (New),4.0,"100 King Street W, Toronto",43.648638,-79.381744,407,2965.94,16473612025,False,$$,Toronto
Jules Bistro,French,French,French,4.0,"924 Queen Street West, Toronto",43.644959,-79.415938,86,190.41,14165335454,False,$$$,Toronto
Le Baratin,French,French,French,4.5,"1600 Dundas Street. W, Toronto",43.65007,-79.4351,132,1505.2,14165348800,False,$$,Toronto
Enoteca Sociale,Italian,Italian,Italian,4.0,"1288 Dundas St W, Toronto",43.64968,-79.42567,323,859.02,14165341200,False,$$$,Toronto
Beast Pizza,Pizza,Pizza,NA,4.0,"96 Tecumseth Street, Toronto",43.64408,-79.40578,412,993.52,16473526000,False,$$,Toronto
Beerbistro,"Bistros, Beer Bar, Comfort Food",Beer Bar,NA,4.0,"18 King Street E, Toronto",43.649628,-79.377165,681,3354.14,14168619872,False,$$,Toronto
DaiLo,"Chinese, Asian Fusion",Chinese,"Chinese, Asian Fusion",4.0,"503 College Street, Toronto",43.65574,-79.4098,329,1448.23,16473418882,False,$$$,Toronto
Cafe Landwer - Adelaide & University,"Cafes, Breakfast & Brunch, Mediterranean",Cafes,Mediterranean,4.0,"165 University Avenue, Toronto",43.64875,-79.38491,536,2709.96,16477481165,False,$$,Toronto
The Haam,"Japanese, Mexican, Sushi Bars",Sushi Bars,"Japanese, Mexican",4.0,"342 Adelaide St W, Toronto",43.64743,-79.39308,333,2040.09,14169777258,False,$$,Toronto
Her Father's Cider Bar & Kitchen,"Gastropubs, Bars, Canadian (New)","Gastropubs, Bars",Canadian (New),4.5,"119 Harbord Street, Toronto",43.66232,-79.40453,195,2285.23,16473477747,False,$$,Toronto
La Palette,"French, Desserts, Bars","Desserts, Bars",French,4.0,"492 Queen Street W, Toronto",43.64797,-79.40098,259,1435.99,14169294900,False,$$$,Toronto
Rodney's Oyster House,Seafood,Seafood,NA,4.0,"469 King Street W, Toronto",43.644948,-79.396846,445,1712.38,14163638105,False,$$$,Toronto
Té,"Asian Fusion, Korean, Comfort Food",Asian Fusion,"Asian Fusion, Korean",4.0,"70 Ossington Avenue, Toronto",43.64575,-79.41964,124,209.47,16473488009,False,$$,Toronto
Oyster Boy,Seafood,Seafood,NA,4.0,"872 Queen Street W, Toronto",43.645224,-79.414334,214,321.81,14165343432,False,$$$,Toronto
Soos,Malaysian,Malaysian,Malaysian,4.0,"94 Ossington Avenue, Toronto",43.646259,-79.419746,176,260.4,14169017667,False,$$$,Toronto
Smoque N' Bones,Barbeque,Barbeque,NA,4.0,"869 Queen Street W, Toronto",43.645703,-79.410743,419,613.7,16473415730,False,$$,Toronto
Barque Smokehouse,"Barbeque, Smokehouse",Barbeque,NA,4.0,"299 Roncesvalles Avenue, Toronto",43.64801,-79.449659,526,2572.8,14165327700,False,$$,Toronto
Le Sélect Bistro,"French, Coffee & Tea, Breakfast & Brunch",Coffee & Tea,French,4.0,"432 Wellington Street W, Toronto",43.643906,-79.396852,469,1710.65,14165966405,False,$$$,Toronto
George Restaurant,"Canadian (New), Cocktail Bars",Cocktail Bars,Canadian (New),4.5,"111 Queen Street E, Toronto",43.653373,-79.374329,301,3664.99,14168636006,False,$$$$,Toronto
OEB Breakfast Co. Liberty Village,Breakfast & Brunch,Breakfast & Brunch,NA,4.5,"125 E Liberty Street, Toronto",43.63836,-79.41623,142,669.98,14162381152,False,$$,Toronto
Jatujak,"Food Delivery Services, Thai",Food Delivery Services,Thai,4.0,"1744 Victoria Park Avenue, Toronto",43.736027,-79.307515,406,3585.32,16473521744,False,$$,Toronto
Nakamori,"Japanese, Sushi Bars, Asian Fusion",Sushi Bars,"Japanese, Asian Fusion",4.0,"2803 Eglinton Avenue E, Toronto",43.73692,-79.24466,115,1602.97,14162657111,False,$$$,Toronto
Lageez,Indian,Indian,Indian,4.5,"641 Pharmacy Avenue, Toronto",43.710842,-79.291319,115,3271.35,14162857999,False,$$,Toronto
Jatujak,"Thai, Food Delivery Services",Thai,Thai,4.0,"2386 Kingston Road, Toronto",43.708072,-79.250494,166,2902.72,14166981466,False,$$,Toronto
Rally Restaurant and Bar,"Sports Bars, Barbeque, Smokehouse","Sports Bars, Barbeque",NA,4.0,"1660 O'Connor Drive, Toronto",43.717466,-79.305012,106,3718.01,14165517356,False,$$,Toronto
Pho Metro,Vietnamese,Vietnamese,Vietnamese,4.0,"2057 Lawrence Avenue E, Scarborough",43.745266,-79.294049,372,2833.37,14167508898,False,$$,Toronto
Ni Ji Sushi,"Japanese, Sushi Bars",Sushi Bars,Japanese,4.0,"1095 Ellesmere Road, Toronto",43.76751,-79.27165,289,3965.1,14167553335,False,$$,Toronto
Scotty Bons Caribbean Grill,Caribbean,Caribbean,Caribbean,4.0,"789 Warden Avenue, Scarborough",43.72604,-79.2861,101,1952.73,14167527222,False,$$,Toronto
The Corner Bank,"Pool Halls, Sports Bars, Canadian (New)",Sports Bars,Canadian (New),4.5,"925 Warden Avenue, Toronto",43.73135,-79.288269,40,1977.94,14167572265,False,$$,Toronto
Mamajoun Armenian Pizzeria,"Pizza, Sandwiches","Pizza, Sandwiches",NA,4.5,"209 Ellesmere Road, Toronto",43.76045,-79.30292,129,4413.54,16473505686,False,$,Toronto
Fish & Loaf,"Seafood, Steakhouses, Asian Fusion","Seafood, Steakhouses",Asian Fusion,5.0,"A117-41 Lebovic Avenue, Toronto",43.723272,-79.288736,16,2259.35,16473688683,False,$,Toronto
Aleppo Kebab,Kebab,Kebab,NA,4.5,"1960 Lawrence Avenue E, Toronto",43.74495,-79.29819,57,3114.18,14167019191,False,$$,Toronto
THE REAL McCOY,"Burgers, Pizza","Burgers, Pizza",NA,4.5,"3300 Lawrence Avenue E, Scarborough",43.757975,-79.23588,196,3612.88,14164396804,False,$,Toronto
Makkal Chon,Korean,Korean,Korean,4.0,"1979 Lawrence Avenue E, Toronto",43.7447,-79.29678,376,2962.14,14167573945,False,$$,Toronto
Subiksha Foods,"Indian, Vegetarian",Indian,Indian,4.5,"2633 Eglinton Avenue E, Toronto",43.7358,-79.251681,45,1020.19,14162642221,False,$,Toronto
MEXITACO,"Mexican, Cocktail Bars, Latin American",Cocktail Bars,"Mexican, Latin American",4.0,"1109 Victoria Park Avenue, Toronto",43.70862,-79.29554,153,3686.16,16473496603,False,$$,Toronto
Barans Turkish Cuisine & Bar,"Turkish, Bars",Bars,NA,3.5,"2043 Eglinton Avenue E, Toronto",43.729288,-79.280726,92,1417.91,14167504545,False,$$$,Toronto
Maya’s Halal Pizza And Grill,"Pizza, Italian, Burgers","Pizza, Burgers",Italian,4.5,"1555 O'Connor Drive, Toronto",43.714982,-79.304995,49,3848.2,14168778787,False,$$,Toronto
Blackhorn Steakhouse,Steakhouses,Steakhouses,NA,4.5,"251 Ellesmere Road, Scarborough",43.76038,-79.30197,34,4380.17,14164492841,False,$$$,Toronto
The Veggie Thali,"Indian, Vegetarian, Vegan",Indian,Indian,4.5,"1410 Victoria Park Avenue, Toronto",43.71942,-79.30102,66,3334.27,14162858344,False,$,Toronto
Johnny's Shawarma,Middle Eastern,Middle Eastern,Middle Eastern,4.0,"1904 Kennedy Road, Toronto",43.766827,-79.281737,95,4096.17,14162987917,False,$,Toronto
Sahan Restaurant,"Steakhouses, African",Steakhouses,African,4.5,"2010 Lawrence Avenue E, Scarborough",43.74503,-79.296375,61,2983.66,14167597242,False,$$,Toronto
Vindaloo Indian Cuisine,Indian,Indian,Indian,4.0,"2891 Kingston Road, Toronto",43.722382,-79.235252,58,2541.98,14169011133,False,$$,Toronto
Diana's Oyster Bar and Grill,"Seafood, American, Bars","Seafood, Bars",American,3.5,"2105 Lawrence Avenue E, Scarborough",43.74574,-79.29152,218,2691.27,14162881588,False,$$$,Toronto
Ital Vital,"Caribbean, Juice Bars & Smoothies",Juice Bars & Smoothies,Caribbean,4.5,"741 Pharmacy Avenue, Scarborough",43.71723,-79.29363,112,2949.61,16474287432,False,$$,Toronto
Roll N Bowl Korean & Japanese Cuisine,"Japanese, Korean, Sushi Bars",Sushi Bars,"Japanese, Korean",4.0,"1157 Ellesmere Road, Toronto",43.767194,-79.270336,122,3907.02,14167011212,False,$$,Toronto
Patisserie Royale,"Bakeries, Middle Eastern",Bakeries,Middle Eastern,4.5,"1415 Kennedy Road, Toronto",43.764811,-79.280271,47,3844.95,14167556323,False,$$,Toronto
Il Fresco,Italian,Italian,Italian,4.5,"3081 Kingston Road, Scarborough",43.726697,-79.230266,25,2753.15,16473474889,False,$$,Toronto
Kim Kim Indian Hakka Chinese Restaurant,"Halal, Asian Fusion",Halal,Asian Fusion,4.0,"1188 Kennedy Road, Scarborough",43.753508,-79.276481,87,2565.26,14167578300,False,$,Toronto
Wong's Asian Cuisine,"Hakka, Asian Fusion",Hakka,Asian Fusion,4.0,"2173 Lawrence Avenue  E, Scarborough",43.74755,-79.283948,44,2321.04,14162850289,False,$,Toronto
Crown Pastries,"Bakeries, Middle Eastern",Bakeries,Middle Eastern,4.5,"2086 Lawrence Avenue E, Toronto",43.74603,-79.29268,41,2821.69,16473512015,False,$$,Toronto
Chung Moi Chinese Restaurant,"Hakka, Asian Fusion",Hakka,Asian Fusion,4.0,"2412 Eglinton Avenue E, Scarborough",43.73244,-79.26944,58,462.17,14167555293,False,$$,Toronto
ADDA Bengali Kitchen and Catering,"Bangladeshi, Indian",Bangladeshi,Indian,5.0,"3342 Danforth Avenue, Toronto",43.69397,-79.27756,15,4416.42,16473472332,False,$$,Toronto
Mandarin Restaurant,"Buffets, Chinese",Buffets,Chinese,3.5,"2206 Eglinton Avenue E, Scarborough",43.730816,-79.27924,82,1267.94,14162881177,False,$$,Toronto
T-Bones Sizzling Steaks & Burgers Drive-In Restaurant,"Burgers, Steakhouses","Burgers, Steakhouses",NA,3.5,"2540 Eglinton Avenue E, Scarborough",43.7354,-79.25612,155,685.01,14162695757,False,$$,Toronto
El Sazón de la Tia Flor,Mexican,Mexican,Mexican,4.5,"1549 O'Connor Drive, Toronto",43.714737,-79.305261,31,3880.35,14166892450,False,$,Toronto
Good Luck Chinese Restaurant,Chinese,Chinese,Chinese,3.5,"2432 Eglinton Avenue E, Scarborough",43.733699,-79.266142,32,249.78,14162851818,False,$,Toronto
Karahi Boys,"Pakistani, Barbeque",Barbeque,NA,4.0,"1921 Lawrence Avenue E, Toronto",43.74385,-79.29975,44,3177.43,14169018727,False,$,Toronto
Rose's Halal Kitchen,"Halal, Caribbean",Halal,Caribbean,4.5,"8a-1960 Lawrence Ave E, Toronto",43.744936,-79.298271,22,3114.18,14167314142,False,$$,Toronto
Shawarma Empire,Middle Eastern,Middle Eastern,Middle Eastern,4.5,"1823 Lawrence Avenue E, Scarborough",43.74322,-79.30347,230,3415.22,14162851337,False,$,Toronto
Gingerman Restaurant,"Canadian (New), Diners",Canadian (New),Canadian (New),4.5,"1104 Victoria Park Avenue, Toronto",43.707776,-79.296167,69,3786.68,14167575005,False,$,Toronto
Royal Congee Chinese Cuisine,Chinese,Chinese,Chinese,4.5,"4 Greystone Walk Drive, Toronto",43.72469,-79.25267,29,1238.15,14162618818,False,$$,Toronto
Mama's Boys Burgers,Burgers,Burgers,NA,4.0,"480 Danforth Road, Toronto",43.70857,-79.267641,135,2668.9,14162696262,False,$,Toronto
Aunt Elsie's Caribbean Kitchen,Caribbean,Caribbean,Caribbean,4.5,"2689 Eglinton Avenue E, Toronto",43.73624,-79.249913,23,1180.67,14162610250,False,$,Toronto
Hakka Legend Asian Cuisine,"Halal, Hakka",Halal,NA,3.5,"789 Warden Avenue, Toronto",43.72602,-79.286765,63,1990.91,14167590006,False,$$,Toronto
Chick Fiesta,"Portuguese, Steakhouses, Chicken Shop",Steakhouses,NA,4.0,"699 Markham Road, Toronto",43.76164,-79.225694,40,4455.5,14164395300,False,$,Toronto
Pizza On Fire,"Pizza, Halal, Chicken Wings",Pizza,NA,5.0,"880 Ellesmere Road, Toronto",43.76622,-79.28211,27,4021.15,14164120011,False,$,Toronto
Kroran Uyghur Cuisine,"Chinese, Halal, Turkish",Chinese,Chinese,4.0,"1515 Birchmount Road, Toronto",43.7589,-79.28916,34,3579.31,14165514010,False,$,Toronto
HoneyB Hives Restaurant,"Bubble Tea, Breakfast & Brunch, Fast Food",Fast Food,NA,4.5,"2608 Eglington Ave East, Toronto",43.736129,-79.252911,9,954.66,14162610888,False,$,Toronto
California Sandwiches,Sandwiches,Sandwiches,NA,4.0,"812 Warden Avenue, Scarborough",43.72609,-79.28758,63,2039.98,14167550555,False,$,Toronto
Scaramouche Restaurant Pasta Bar & Grill,"French, Bars",Bars,French,4.5,"1 Benvenuto Place, Toronto",43.68155,-79.39991,339,957.66,14169618011,False,$$$$,Toronto
Trattoria Nervosa,"Italian, Pizza, Salad",Pizza,Italian,4.0,"75 Yorkville Avenue, Toronto",43.67101,-79.39104,411,956.9,14169614642,False,$$,Toronto
Yasu,"Japanese, Sushi Bars",Sushi Bars,Japanese,4.5,"81 Harbord Street, Toronto",43.66269,-79.40314,433,1150.0,14164772361,False,$$$$,Toronto
Joso's,Seafood,Seafood,NA,4.5,"202 Davenport Road, Toronto",43.67511,-79.39607,173,572.44,14169251903,False,$$$,Toronto
Rasa,"Canadian (New), Tapas/Small Plates",Canadian (New),Canadian (New),4.5,"196 Robert Street, Toronto",43.662775,-79.403968,331,1150.14,16473508221,False,$$,Toronto
Playa Cabana,"Mexican, Bars",Bars,Mexican,4.0,"111 Dupont Street, Toronto",43.675958,-79.401184,480,341.72,14169293911,False,$$,Toronto
Blu Ristorante,Italian,Italian,Italian,4.0,"90 Avenue Road, Toronto",43.67239,-79.396085,180,541.17,14169211471,False,$$$,Toronto
The Carbon Bar,"Barbeque, Bars, American","Barbeque, Bars",American,4.0,"99 Queen Street East, Toronto",43.653088,-79.374829,421,3151.77,14169477000,False,$$$,Toronto
PLANTA Yorkville,"Vegetarian, Pizza, Sushi Bars","Pizza, Sushi Bars",NA,4.0,"1221 Bay Street, Toronto",43.67028,-79.38945,510,1108.49,16478121221,False,$$,Toronto
Insomnia Restaurant & Lounge,"Lounges, Breakfast & Brunch, Comfort Food",Lounges,NA,4.0,"563 Bloor Street W, Toronto",43.665961,-79.411003,1020,1037.5,14165883907,False,$$,Toronto
Fieramosca,Italian,Italian,Italian,4.5,"36A Prince Arthur Avenue, Toronto",43.66963,-79.39719,115,580.07,14163230636,False,$$$,Toronto
KINKA IZAKAYA ANNEX,"Japanese, Tapas/Small Plates, Pubs",Pubs,Japanese,4.0,"559 Bloor St W, Toronto",43.665157,-79.410658,507,1090.58,16473431101,False,$$,Toronto
The Oxley,"Pubs, Gastropubs","Pubs, Gastropubs",NA,4.0,"121 Yorkville Avenue, Toronto",43.67059,-79.39304,186,818.65,16473481300,False,$$,Toronto
Miku,"Japanese, Sushi Bars",Sushi Bars,Japanese,4.0,"105-10 Bay Street, Toronto",43.641235,-79.37737,905,4083.3,16473477347,False,$$$$,Toronto
The Caledonian,"Pubs, Scottish, Whiskey Bars","Pubs, Whiskey Bars",Scottish,4.5,"856 College Street, Toronto",43.65439,-79.42355,152,2679.37,14165777472,False,$$,Toronto
Ristorante Sotto Sotto,Italian,Italian,Italian,4.0,"120 Avenue Road, Toronto",43.67374,-79.39646,134,502.28,14169620011,False,$$$,Toronto
The Keg Steakhouse + Bar,"Steakhouses, Bars, Seafood","Steakhouses, Bars, Seafood",NA,4.0,"515 Jarvis Street, Toronto",43.666834,-79.377925,378,2106.71,14169646609,False,$$$,Toronto
Kintaro Izakaya,"Japanese, Sushi Bars, Tapas/Small Plates",Sushi Bars,Japanese,4.0,"459 Church Street, Toronto",43.66417,-79.38006,246,2065.96,16475605335,False,$$,Toronto
Sugo,"Italian, Sandwiches, Cocktail Bars","Sandwiches, Cocktail Bars",Italian,4.5,"1281 Bloor Street W, Toronto",43.65825,-79.44227,283,3592.96,14165351717,False,$$,Toronto
Agio,Italian,Italian,Italian,4.5,"1351 St Clair Avenue W, Toronto",43.67599,-79.45066,191,3374.59,16473484814,False,$$,Toronto
CANO Restaurant,"Italian, Mediterranean, Cocktail Bars",Cocktail Bars,"Italian, Mediterranean",4.5,"1108 St Clair Avenue W, Toronto",43.67871,-79.44058,73,3396.71,14169013655,False,$$,Toronto
The Hole In the Wall,"Pubs, Canadian (New)",Pubs,Canadian (New),4.5,"2867 Dundas Street W, Toronto",43.66518,-79.46515,174,4491.63,<NA>,False,$$,Toronto
RH Courtyard Restaurant at RH Toronto,"Cafes, Canadian (New), Breakfast & Brunch",Cafes,Canadian (New),4.0,"3401 Dufferin Street, Toronto",43.724903,-79.455602,184,2193.45,14163229422,False,$$$,Toronto
Queen of Persia,Persian/Iranian,Persian/Iranian,Persian/Iranian,4.5,"672A St Clair Avenue W, Toronto",43.68203,-79.42542,52,3869.39,14166515500,False,$$$,Toronto
Pho Anh Vu,Vietnamese,Vietnamese,Vietnamese,4.0,"3200 Dufferin Street, Toronto",43.71836,-79.457369,84,1452.14,16473469333,False,$$,Toronto
Barista & Chef,Mediterranean,Mediterranean,Mediterranean,4.5,"1006 Saint Clair Avenue W, Toronto",43.679453,-79.437453,53,3457.76,16473441216,False,$$,Toronto
Nodo Restaurant,Italian,Italian,Italian,4.5,"794 Saint Clair Avenue W, Toronto",43.681011,-79.429799,65,3697.92,16477481559,False,$$,Toronto
Pukka,Indian,Indian,Indian,4.0,"778 St. Clair Avenue W, Toronto",43.681191,-79.429274,180,3711.93,14163421906,False,$$$,Toronto
La Bella Managua,"Latin American, Nicaraguan",Latin American,Latin American,4.5,"872 Bloor Street W, Toronto",43.66232,-79.42495,257,5606.3,14169134227,False,$$,Toronto
Bi Bim Bap,Korean,Korean,Korean,4.0,"950 Eglinton Avenue W, Toronto",43.70055,-79.42872,81,2641.81,14167877423,False,$$,Toronto
Honest Weight,"Seafood, Seafood Markets","Seafood, Seafood Markets",NA,4.5,"2766 Dundas Street W, Toronto",43.665334,-79.461486,138,4471.62,14166049992,False,$$,Toronto
JOEY Yorkdale,"Canadian (New), Lounges, Steakhouses",Steakhouses,Canadian (New),3.5,"305-B 3401 Dufferin Street, Toronto",43.724067,-79.453922,317,2133.48,14167835639,False,$$,Toronto
Indie Ale House,"Breweries, Gastropubs, Pizza","Gastropubs, Pizza",NA,4.0,"2876 Dundas Street W, Toronto",43.665441,-79.465238,255,4473.28,14167609691,False,$$,Toronto
Zuki Japanese Restaurant,"Japanese, Sushi Bars",Sushi Bars,Japanese,4.0,"2030 Eglinton Avenue W, Toronto",43.69463,-79.456139,75,1267.29,16473522030,False,$$,Toronto
Selam Restaurant & Lounge,Ethiopian,Ethiopian,Ethiopian,4.5,"812 Bloor Street W, Toronto",43.66279,-79.42269,74,5657.37,14169157225,False,$$,Toronto
Pancer's Original Deli,Delis,Delis,NA,4.5,"3856 Bathurst Street, Toronto",43.74074,-79.43534,99,4426.65,14166361230,False,$$,Toronto
Paldo Gangsan,Korean,Korean,Korean,4.5,"694 Bloor Street  W, Toronto",43.664,-79.41743,84,5798.26,14165367517,False,$,Toronto
Isaan Der,Thai,Thai,Thai,4.0,"2961 Dundas Street W, Toronto",43.665286,-79.467938,116,4512.79,14166040062,False,$$,Toronto
FK,French,French,French,4.5,"770 St Clair Avenue W, Toronto",43.68127,-79.42869,54,3726.26,14165519731,False,$$,Toronto
Luna Junction,"Portuguese, Mediterranean, Seafood",Seafood,Mediterranean,4.5,"2800 Dundas St W, Toronto",43.6656,-79.46276,41,4445.81,14167624116,False,$$,Toronto
The Arepa Republic,"Venezuelan, Food Trucks",Venezuelan,Venezuelan,4.5,"76 Densley Avenue, Toronto",43.705357,-79.471208,19,830.47,14162432430,False,$$,Toronto
St. Matthew's BBQ Chicken,"Portuguese, Barbeque",Barbeque,NA,4.5,"527 Rogers Rd, Toronto",43.68209,-79.46899,31,2687.13,14166584126,False,$$,Toronto
Tallboys Craft Beer House,"Pubs, Canadian (New), Burgers","Pubs, Burgers",Canadian (New),4.0,"838 Bloor Street W, Toronto",43.66256,-79.42382,101,5634.91,14165357486,False,$$,Toronto
TORA,"Japanese, Sushi Bars",Sushi Bars,Japanese,4.0,"612B-3401 Dufferin Street, Toronto",43.724456,-79.455262,224,2150.15,16473491193,False,$$$,Toronto
Nodo - Junction,Italian,Italian,Italian,4.0,"2885 Dundas Street West, Toronto",43.665251,-79.465596,207,4491.2,14169011559,False,$$,Toronto
Aviv Immigrant Kitchen,Mediterranean,Mediterranean,Mediterranean,4.5,"779 St. Clair Avenue W, Toronto",43.68078,-79.42912,23,3754.9,14169222433,False,$$,Toronto
Katsuya,"Japanese, Asian Fusion",Japanese,"Japanese, Asian Fusion",5.0,"3610 Dufferin Street, Toronto",43.731431,-79.459144,37,2881.62,14163980059,False,$$,Toronto
Sea Witch Fish and Chips,Fish & Chips,Fish & Chips,NA,4.0,"636 Saint Clair Avenue W, Toronto",43.682218,-79.423962,136,3939.97,16473494824,False,$$,Toronto
Dirty Food Eatery,"Breakfast & Brunch, Comfort Food, Southern",Breakfast & Brunch,NA,4.5,"3070 Dundas Street W, Toronto",43.66565,-79.47188,143,4528.61,14168553393,False,$$,Toronto
Buk Chang Dong Soon Tofu,Korean,Korean,Korean,4.0,"691 Bloor Street W, Toronto",43.66363,-79.41693,490,5855.56,14165370972,False,$$,Toronto
Northwood,"Cafes, Cocktail Bars","Cafes, Cocktail Bars",NA,4.0,"815 W Bloor Street, Toronto",43.66248,-79.42204,122,5696.75,<NA>,False,$$,Toronto
Famiglia Baldassarre,Italian,Italian,Italian,4.5,"122 Geary Avenue, Toronto",43.67052,-79.43506,75,4421.9,16472935395,False,$$,Toronto
Leela Indian Food Bar,Indian,Indian,Indian,4.0,"3108 Dundas Street W, Toronto",43.665686,-79.473764,107,4552.12,14167697777,False,$$,Toronto
Chica's Nashville Hot Chicken,"Chicken Shop, Southern",Chicken Shop,NA,4.5,"2853 Dundas Street W, Toronto",43.66518,-79.46423,128,4489.28,16473436562,False,$$,Toronto
Emma's Country Kitchen,"Breakfast & Brunch, Comfort Food, Donuts",Breakfast & Brunch,NA,4.0,"810 Saint Clair Avenue W, Toronto",43.68103,-79.43036,444,3677.75,14166523662,False,$$,Toronto
Tre Mari Bakery,"Bakeries, Italian, Delicatessen",Bakeries,Italian,4.5,"1311 Saint Clair Avenue W, Toronto",43.6765,-79.44868,94,3380.37,14166548960,False,$,Toronto
Comal Y Canela,Mexican,Mexican,Mexican,4.5,"1692B Jane Street, North York",43.70326,-79.50419,118,3490.24,16476894694,False,$$,Toronto
Rush Hour,Portuguese,Portuguese,NA,4.5,"1438A Dufferin Street, Toronto",43.67111,-79.44037,48,4160.78,14165334687,False,$$,Toronto
Pizza e Pazzi,"Pizza, Italian",Pizza,Italian,4.0,"1182 St Clair Avenue W, Toronto",43.678,-79.443859,91,3353.73,14166519999,False,$$,Toronto
Rio 40 Restaurant,Brazilian,Brazilian,NA,4.0,"1256 Saint Clair Avenue West, Toronto",43.677457,-79.446485,63,3330.73,14166546363,False,$$,Toronto
Oakwood Hardware Food & Drink,"Gastropubs, Salad, Soup",Gastropubs,NA,4.0,"337 Oakwood Avenue, Toronto",43.686219,-79.438199,56,2816.84,14166589898,False,$$,Toronto
Toronto Pho,Vietnamese,Vietnamese,Vietnamese,3.5,"2473 Dufferin Street, Toronto",43.70095,-79.45143,36,910.11,14167822225,False,$$,Toronto
DeSotos Eatery,Gastropubs,Gastropubs,NA,4.0,"1079 St Clair Avenue West, Toronto",43.678626,-79.439659,84,3444.18,14166512109,False,$$,Toronto
Nozomi Fusion Kitchen,"Asian Fusion, Burgers, Poke",Burgers,Asian Fusion,4.5,"3415 Bathurst Street, Toronto",43.72705,-79.431277,23,3368.2,16476764841,False,$$,Toronto
Yu Seafood,"Desserts, Seafood, Dumplings","Desserts, Seafood",NA,4.0,"3401 Dufferin Street, Toronto",43.724816,-79.456904,75,2269.28,14166133618,False,$$,Toronto
Francobollo Posto Italino,Italian,Italian,Italian,4.0,"1959 Avenue Road, Toronto",43.734442,-79.419466,41,4624.39,14164813888,False,$$$$,Toronto
Mercado Negro,"Tapas/Small Plates, Cafes, Sandwiches","Cafes, Sandwiches",NA,4.5,"682 Caledonia Road, Toronto",43.696933,-79.463528,32,981.53,16477481370,False,$$$$,Toronto
Atomic 10,Mexican,Mexican,Mexican,4.5,"145 Lauder Ave, Toronto",43.67849,-79.43952,33,3469.52,16479068107,False,$$$$,Toronto
Krystos Modern Greek Cuisine,"Greek, Mediterranean",Greek,"Greek, Mediterranean",3.5,"3200 Dufferin Street, Toronto",43.718781,-79.456204,89,1518.37,14169018283,False,$$,Toronto
Azarias,"Canadian (New), Beer, Wine & Spirits","Beer, Wine & Spirits",Canadian (New),4.5,"3058 Bloor Street W, Toronto",43.646998,-79.513195,92,4784.44,16473528448,False,$$$,Toronto
Insadong,Korean,Korean,Korean,4.5,"4941 Dundas Street W, Toronto",43.648045,-79.529176,96,3967.94,14167460777,False,$$,Toronto
Silver Chopsticks,"Vietnamese, Thai",Vietnamese,"Vietnamese, Thai",4.5,"621 Dixon Road, Toronto",43.69016,-79.57594,33,2252.2,14165194735,False,$$,Toronto
Mai Bistro,"Asian Fusion, Latin American, Tapas/Small Plates",Asian Fusion,"Asian Fusion, Latin American",4.5,"4906 Dundas W, Toronto",43.649003,-79.528554,99,3890.66,16473433130,False,$$,Toronto
Zeal Burgers,Burgers,Burgers,NA,4.5,"1926 Weston Road, Toronto",43.700276,-79.517078,136,3606.24,16473523933,False,$$,Toronto
Chop Steakhouse & Bar,"Steakhouses, Seafood, Lounges","Steakhouses, Seafood",NA,4.0,"801 Dixon Road, Etobicoke",43.686714,-79.587906,214,3096.36,14166747500,False,$$$,Toronto
St James's Gate Toronto,"Irish, Pubs, Beer, Wine & Spirits","Pubs, Beer, Wine & Spirits",Irish,4.0,"5140 Dundas St W, Toronto",43.64389,-79.53359,80,4238.19,16473505140,False,$$,Toronto
Sushi-Ya Japan,"Japanese, Sushi Bars",Sushi Bars,Japanese,4.0,"621 Dixon Road, Etobicoke",43.69016,-79.57594,210,2252.2,14162499666,False,$$,Toronto
Route 401 Diner,"Diners, American, Breakfast & Brunch",Diners,American,4.5,"2 Ronson Drive, Toronto",43.700974,-79.562474,59,2520.79,14162477836,False,$,Toronto
Sushi Run,"Sushi Bars, Japanese",Sushi Bars,Japanese,4.5,"3351 Bloor Street W, Toronto",43.644901,-79.521863,118,4557.36,14162379900,False,$$,Toronto
Bonimi,"Cafes, Modern European, Barbeque","Cafes, Barbeque",Modern European,4.5,"3319 Bloor Street  W, Toronto",43.64513,-79.52041,46,4595.22,14168471188,False,$$,Toronto
Xawaash,"Middle Eastern, Mediterranean",Middle Eastern,"Middle Eastern, Mediterranean",4.0,"130 Queens Plate Drive, Toronto",43.71548,-79.5931,154,5155.14,14167477222,False,$$,Toronto
P & M Restaurant,Greek,Greek,Greek,4.5,"1946 Weston Road, Toronto",43.70047,-79.518089,48,3579.57,14162413838,False,$$,Toronto
Lan Sushi,"Sushi Bars, Japanese",Sushi Bars,Japanese,4.0,"35 - 1500 Royal York Road, Toronto",43.69162,-79.53181,78,2186.91,16473491244,False,$$,Toronto
Plan B,South African,South African,South African,5.0,"2943A Bloor Street W, Toronto",43.647984,-79.50754,36,5015.49,14162314444,False,$$,Toronto
Souvlaki Hut Greek Taverna,Greek,Greek,Greek,4.5,"3080 Bloor Street W, Toronto",43.646919,-79.514307,35,4733.34,14162332090,False,$$,Toronto
Ikkoi,"Sushi Bars, Ramen",Sushi Bars,NA,4.5,"5084 Dundas St W, Toronto",43.645233,-79.532508,25,4131.26,14162332727,False,$$,Toronto
Olio,Mediterranean,Mediterranean,Mediterranean,4.0,"801 Dixon Road, Toronto",43.687073,-79.586809,57,2919.49,14162137504,False,$$,Toronto
Gohyang Restaurant + Bar,"Sushi Bars, Dim Sum",Sushi Bars,NA,4.5,"5096 Dundas Street W, Toronto",43.644813,-79.532546,24,4156.12,14162316660,False,$$,Toronto
Golden Asian Cuisine,"Asian Fusion, Hakka",Asian Fusion,Asian Fusion,4.0,"123 Rexdale Blvd, Toronto",43.71138,-79.565201,37,3745.29,14167495898,False,$$,Toronto
Vibo Restaurant,"Italian, Canadian (New)",Italian,"Italian, Canadian (New)",4.0,"2995 Bloor Street W, Etobicoke",43.64741,-79.50991,58,4927.17,14162391286,False,$$,Toronto
Istar Restaurant,"African, Party Supplies",African,African,4.5,"235 Dixon Road, Etobicoke",43.69668,-79.54387,27,2054.05,14162475624,False,$$,Toronto
Toji Sushi,Sushi Bars,Sushi Bars,NA,4.0,"5088 Dundas St W, Toronto",43.6451,-79.53247,54,4128.46,16473488654,False,$$,Toronto
Toast On Bloor,"Cocktail Bars, Breakfast & Brunch",Cocktail Bars,NA,4.5,"3317 Bloor Street W, Toronto",43.64516,-79.52029,17,4595.33,14166025568,False,$$,Toronto
Porta Via,"Sandwiches, Salad, Soup",Sandwiches,NA,4.5,"5399 Eglinton Avenue West, Toronto",43.66303,-79.589617,47,3542.58,14166226842,False,$$,Toronto
Moxies,"Canadian (New), Steakhouses, Lounges",Steakhouses,Canadian (New),3.5,"55 Reading Court, Etobicoke",43.689844,-79.590633,122,3308.37,14167986788,False,$$,Toronto
Parma Pizza,Pizza,Pizza,NA,4.5,"716 Scarlett Road, Toronto",43.695583,-79.52047,25,3077.03,14162419888,False,$,Toronto
SpiceBros,Indian,Indian,Indian,4.5,"3353 Bloor St W, Toronto",43.644822,-79.521982,19,4559.8,14165513008,False,$,Toronto
Mushkaki's,"African, Burgers, Sandwiches","Burgers, Sandwiches",African,4.0,"145 Rexdale Boulevard, Toronto",43.711145,-79.567717,44,3725.51,14167476874,False,$,Toronto
Mrakovic Meat & Deli,"Specialty Food, Modern European",Specialty Food,Modern European,4.5,"44 Wellesworth Dr, Etobicoke",43.66682,-79.57846,22,2576.36,14166957396,False,$$,Toronto
Momiji Sushi Bar and Grill,"Sushi Bars, Japanese",Sushi Bars,Japanese,4.0,"2955 Bloor Street W, Etobicoke",43.64779,-79.50851,93,4986.94,14162322320,False,$$,Toronto
Taste of Thailand Cuisine,Thai,Thai,Thai,3.5,"5310 Dundas Street W, Etobicoke",43.63592,-79.54065,99,4931.87,14162392824,False,$$,Toronto
Table 21 Kitchen & Wine Bar,"Canadian (New), Wine Bars",Wine Bars,Canadian (New),4.0,"2956 Bloor Street W, Toronto",43.648159,-79.508498,22,4947.08,14162362867,False,$$,Toronto
Jack Astor's Bar and Grill,"Sports Bars, Burgers, Canadian (New)","Sports Bars, Burgers",Canadian (New),3.5,"25 Carlson Court, Etobicoke",43.68933,-79.584304,100,2813.48,14162131688,False,$$,Toronto
Makimono,Sushi Bars,Sushi Bars,NA,2.5,"634 Dixon Road, Toronto",43.690908,-79.575565,93,2273.58,14162486666,False,$$,Toronto
Montesanto Bakery,"Bakeries, Delicatessen, Cafes",Cafes,NA,4.5,"5 Lavington Drive, Etobicoke",43.69031,-79.56177,13,1418.8,14162480606,False,$,Toronto
Martingrove Fish & Chips,Seafood,Seafood,NA,4.5,"5 Lavington Drive, Etobicoke",43.69031,-79.56177,28,1418.8,14162447630,False,$,Toronto
Campo de Fiori Restaurant,Italian,Italian,Italian,4.5,"3317 Bloor Street W, Toronto",43.64516,-79.52029,6,4595.33,16473448509,False,$$,Toronto
Harry's Steak House,Steakhouses,Steakhouses,NA,4.5,"3277 Bloor Street W, Toronto",43.645574,-79.518561,19,4642.85,14165515864,False,$$,Toronto
John's Fish & Chips,"Seafood, Fish & Chips, Greek",Seafood,Greek,4.0,"5090 Dundas Street W, Etobicoke",43.64507,-79.5325,27,4144.75,14162313474,False,$$,Toronto
Pho Con Bo,"Vietnamese, Chinese",Vietnamese,"Vietnamese, Chinese",4.0,"1625 Wilson Avenue, North York",43.719947,-79.51259,102,5497.68,14162495611,False,$,Toronto
Alijandro's Kitchen,"Middle Eastern, Mexican, Food Trucks",Middle Eastern,"Middle Eastern, Mexican",4.0,"4070 Living Arts Drive, Mississauga",43.587714,-79.644904,44,12661.19,19052322545,False,$$,Toronto
SORSI  E  MORSI,Italian,Italian,Italian,4.0,"4900  DUNDAS STREET WEST, ETOBICOKE",43.64924,-79.52861,14,3864.63,14162322250,False,$$$,Toronto
Tokami sushi,Sushi Bars,Sushi Bars,NA,5.0,"3858 Bloor Street W, Toronto",43.641236,-79.539354,12,4386.17,16473502288,False,$$$,Toronto
Milestones,"Canadian (New), Comfort Food, Bars",Bars,Canadian (New),3.0,"646 Dixon Rd, Etobicoke",43.6908,-79.57636,56,2324.67,14162456262,False,$$,Toronto
Ali Baba's Restaurant,"Mediterranean, Middle Eastern",Mediterranean,"Mediterranean, Middle Eastern",4.0,"229 Rexdale Boulevard, Toronto",43.71265,-79.575996,23,4149.96,14167493849,False,$$,Toronto
Scaddabush,"Desserts, Italian, Salad",Desserts,Italian,4.5,"25 Carlson Court, Etobicoke",43.689542,-79.584403,14,2829.99,14162131162,False,$$,Toronto
State & Main Kitchen & Bar,"Bars, American",Bars,American,3.5,"396 The East Mall, Etobicoke",43.645946,-79.560045,44,3819.51,14166260395,False,$$,Toronto
Espresso Bakery & Deli,"Bakeries, Italian, Sandwiches",Sandwiches,Italian,4.5,"4980 Dundas Street W, Toronto",43.647337,-79.530471,15,3984.27,14162363183,False,$,Toronto
Grill Gate,"Canadian (New), Burgers, Sandwiches","Burgers, Sandwiches",Canadian (New),4.5,"832 Sheppard Avenue W, Toronto",43.75315,-79.45165,151,3568.35,14166311167,False,$$,Toronto
Best Istanbul Restaurant,Turkish,Turkish,NA,4.0,"2762 Keele Street, Toronto",43.726723,-79.482172,65,1124.66,16477486363,False,$$,Toronto
Smoke 'N' Roti,Caribbean,Caribbean,Caribbean,4.0,"3320 Keele Street, Toronto",43.744412,-79.486472,22,969.72,14166337171,False,$$,Toronto
Euro Shawarma,Turkish,Turkish,NA,4.0,"2706 Keele Street, Toronto",43.725725,-79.482032,69,1228.36,14162459888,False,$,Toronto
Meat Point,Turkish,Turkish,NA,4.0,"1021 Wilson Ave, Toronto",43.72768,-79.47869,72,1199.71,14166386721,False,$,Toronto
Mustafa Turkish Pizza,Turkish,Turkish,NA,4.0,"866 Wilson Avenue, Toronto",43.73057,-79.46799,150,1755.46,14166310300,False,$$,Toronto
Kin Sushi,"Japanese, Sushi Bars",Sushi Bars,Japanese,4.5,"7-1150 Sheppard Avenue W, Toronto",43.754331,-79.468544,43,2642.83,14163982666,False,$$,Toronto
Chanchitos Latin Flavours,Latin American,Latin American,Latin American,4.0,"Downsview Merchant Market, North York",43.735538,-79.488973,1,14.62,14165592179,False,$$,Toronto
Get & Go Burrito,Mexican,Mexican,Mexican,3.5,"1077 Wilson Avenue, Toronto",43.726656,-79.480365,50,1206.69,14169168750,False,$$,Toronto
Hung Long Restaurant,"Vietnamese, Malaysian, Thai",Vietnamese,"Vietnamese, Malaysian, Thai",4.0,"1122 Wilson Avenue, Toronto",43.726465,-79.48353,67,1089.98,14163982121,False,$,Toronto
Amigos Latin Flavour,"Mexican, Sandwiches",Sandwiches,Mexican,4.0,"1291 Wilson Ave, Toronto",43.72376,-79.49382,36,1390.79,14167923273,False,$,Toronto
Le Montmartre French Restaurant,French,French,French,4.0,"911 Sheppard Avenue W, Toronto",43.75121,-79.4574,49,3086.2,14166303804,False,$$$,Toronto
Mang Mar's Chicharon,Filipino,Filipino,Filipino,5.0,"2885 Keele Street, Toronto",43.733681,-79.483459,7,482.4,14169016368,False,$$$,Toronto
Mastro Ristorante Italiano,Italian,Italian,Italian,4.0,"890 Wilson Avenue, North York",43.73047,-79.46878,16,1710.95,14166368194,False,$$,Toronto
Pho Co Duong,Vietnamese,Vietnamese,Vietnamese,4.5,"854 Sheppard Ave W, Toronto",43.75277,-79.45278,24,3466.64,14166300481,False,$$,Toronto
Sofra Istanbul,"Mediterranean, Turkish",Mediterranean,Mediterranean,4.0,"3330 Steeles Avenue W, Vaughan",43.77402,-79.53148,126,5470.88,19055320054,False,$$,Toronto
Buzz Buzz Pizza,Pizza,Pizza,NA,4.0,"822 Wilson Avenue, North York",43.73098,-79.46678,33,1844.14,14166307777,False,$,Toronto
La Campagna Italian Eatery,Italian,Italian,Italian,4.5,"3330 Steeles Avenue West, Vaughan",43.77383,-79.531653,38,5466.42,19057380028,False,$$,Toronto
Lucky Wok Restaurants,"Chinese, Imported Food",Chinese,Chinese,4.5,"728 Wilson Avenue, North York",43.73163,-79.46371,10,2068.92,14166358245,False,$,Toronto
Bamiyan Kabob,Afghan,Afghan,NA,4.0,"4205 Keele St, Toronto",43.77361,-79.4921,87,4256.89,14166500111,False,$$,Toronto
Cafe Landwer - Yorkdale,Cafes,Cafes,NA,4.0,"3401 Dufferin Street, North York",43.725616,-79.452205,37,3330.62,14164109599,False,$$,Toronto
Doner G,Turkish,Turkish,NA,4.5,"879 Wilson Ave, North York,",43.730468,-79.466367,27,1893.54,16476873602,False,$$,Toronto
Lac Vien Vietnamese Restaurant,Vietnamese,Vietnamese,Vietnamese,3.5,"141 Cartwright Avenue, North York",43.72125,-79.46868,71,2299.53,16473447933,False,$,Toronto
Red & White Shawarma,"Middle Eastern, Mediterranean, Greek",Middle Eastern,"Middle Eastern, Mediterranean, Greek",4.5,"1635 Lawrence Avenue W, Toronto",43.70463,-79.49219,16,3411.33,14162460444,False,$$,Toronto
Downsview Restaurant,"Seafood, Breakfast & Brunch",Seafood,NA,4.5,"2865 Keele Street, North York",43.73275,-79.48303,10,560.72,14166331350,False,$$,Toronto
Costa Verde BBQ Chicken,"Portuguese, Barbeque",Barbeque,NA,3.0,"2762 Keele Street, Toronto",43.7271,-79.482529,21,1062.87,14166535629,False,$$,Toronto
Mr Jerk,Caribbean,Caribbean,Caribbean,4.5,"1347a Lawrence Avenue W, North York",43.70927,-79.47557,22,3200.39,14162488609,False,$,Toronto
Mama's Tofu,"Vietnamese, Vegan",Vietnamese,Vietnamese,4.5,"1635 Lawrence Avenue W, Toronto",43.70463,-79.49219,26,3411.33,16473528738,False,$,Toronto
Cali Mexican Grill,Mexican,Mexican,Mexican,4.0,"3250 Dufferin Street, Toronto",43.72017,-79.4562,43,3120.7,14166036800,False,$,Toronto
Pho Son,Vietnamese,Vietnamese,Vietnamese,4.0,"2319 Keele Street, Toronto",43.70483,-79.47679,37,3547.82,14169013437,False,$,Toronto
Pho Mi Viet Hoa,Vietnamese,Vietnamese,Vietnamese,4.0,"2887 Jane Street, North York",43.752089,-79.515493,69,2818.05,16474353251,False,$,Toronto
Bingz Crispy Burger,"Chinese, Burgers, Fast Food","Burgers, Fast Food",Chinese,4.5,"3401 Dufferin Street, Toronto",43.725846,-79.451676,10,3176.99,14378805524,False,$,Toronto
Pho Cuu Long Mien Tay,Vietnamese,Vietnamese,Vietnamese,3.5,"2522 Jane Street, North York",43.739649,-79.514343,60,2098.04,16475260006,False,$,Toronto
California Sandwiches,Sandwiches,Sandwiches,NA,3.5,"3701 Chesswood Drive, North York",43.75597,-79.47396,59,2567.5,14166363200,False,$$,Toronto
Nguyên Huong,"Vietnamese, Sandwiches",Sandwiches,Vietnamese,4.5,"1625 Wilson Avenue, Toronto",43.719893,-79.512234,13,2567.96,14162418788,False,$,Toronto
El Jefe De Pollo,"Fast Food, Sandwiches, Chicken Wings","Fast Food, Sandwiches",NA,4.5,"45 Four Winds Drive, North York",43.763234,-79.499124,26,3179.93,19059043025,False,$,Toronto
Suliko Restaurant,"Russian, Modern European",Russian,Modern European,4.0,"1311 Alness Street, Concord",43.785912,-79.482849,155,4299.8,19057601989,False,$$,Toronto
Genji Sushi,Japanese,Japanese,Japanese,4.0,"2899 Steeles Avenue W, North York",43.78141,-79.49165,87,3887.52,14166670867,False,$$,Toronto
Raj Mahal Indian Cuisine,"Indian, Kebab",Indian,Indian,4.5,"1881 Steeles Avenue W, Toronto",43.787389,-79.468756,41,4483.65,16477484040,False,$$,Toronto
Royal Jade,"Hakka, Thai",Hakka,Thai,4.0,"2100 Steeles Avenue W, Vaughan",43.78318,-79.489917,76,4038.4,19056695233,False,$$,Toronto
Fresh Burger,Burgers,Burgers,NA,4.5,"1881 Steeles Avenue West, Toronto",43.787389,-79.468756,32,4483.65,16473518030,False,$$,Toronto
Orly Restaurant & Grill,"Middle Eastern, Sandwiches, Mediterranean",Sandwiches,"Middle Eastern, Mediterranean",4.0,"660 Sheppard Avenue W, North York",43.7551,-79.44211,76,3368.86,14166337700,False,$,Toronto
Sandra's Italian Kitchen,Italian,Italian,Italian,4.5,"2899 Steeles Avenue W, Toronto",43.78141,-79.491653,23,3887.52,14166651999,False,$$,Toronto
Sunnyside Grill,Breakfast & Brunch,Breakfast & Brunch,NA,4.5,"Unit 2 2777 Steeles Avenue W, Toronto",43.782131,-79.490444,25,3929.5,14166670190,False,$,Toronto
Wolfies,"Delis, Sandwiches, Coffee & Tea","Sandwiches, Coffee & Tea",NA,4.5,"670 Sheppard Avenue W, North York",43.75503,-79.44243,51,3338.15,14166389653,False,$$,Toronto
The 5th Taste Sushi Restaurant,"Japanese, Sushi Bars",Sushi Bars,Japanese,4.0,"362 Wilson Avenue, North York",43.73678,-79.43855,43,3726.14,16473509188,False,$$,Toronto
Thai Bamboo,Thai,Thai,Thai,4.0,"2150 Steeles Ave W, Vaughan",43.78302,-79.49127,128,4014.33,19057617598,False,$$,Toronto
Downsview Park Merchants Market,"Farmers Market, Flea Markets, Food Court",Farmers Market,NA,3.5,"40 Carl Hall Road, North York",43.749649,-79.477952,22,462.65,14166382525,False,$,Toronto
Chicken Place,"Soup, Barbeque, Sandwiches","Barbeque, Sandwiches",NA,4.5,"586 Champagne Drive, Toronto",43.764494,-79.476318,19,2021.09,14166305000,False,$$,Toronto
Los Gyros,Mexican,Mexican,Mexican,4.5,"816 Sheppard Avenue W, Toronto",43.753289,-79.450842,19,2641.33,16472426697,False,$$,Toronto
PHO NON LA,Vietnamese,Vietnamese,Vietnamese,4.5,"1881 Steeles Avenue W, Toronto",43.787357,-79.468962,13,4483.65,14166638889,False,$$,Toronto
Cuscatlan Latin American Cuisine,Salvadoran,Salvadoran,NA,4.0,"3232 Steeles Avenue W, Toronto",43.77514,-79.525829,25,4652.54,19055970085,False,$$,Toronto
Moxies,"Canadian (New), Steakhouses, Lounges",Steakhouses,Canadian (New),3.0,"3401 Dufferin Street, Toronto",43.726654,-79.451636,152,3383.76,14167877600,False,$$,Toronto
The Pickle Barrel,"Canadian (New), Tapas/Small Plates, American",Canadian (New),"Canadian (New), American",2.5,"1 Yorkdale Road, Toronto",43.726196,-79.454295,212,3265.98,14167858881,False,$$,Toronto
Pho Huong Trang,Vietnamese,Vietnamese,Vietnamese,3.5,"3370 Keele St, North York",43.746099,-79.487452,30,406.11,14166381480,False,$,Toronto
STACK,Barbeque,Barbeque,NA,4.0,"3265 Yonge Street, Toronto",43.72929,-79.40296,334,3104.88,16473461416,False,$$,Toronto
Grazie Ristorante,Italian,Italian,Italian,4.0,"2373 Yonge Street, Toronto",43.70934,-79.39852,509,2727.83,14164880822,False,$$,Toronto
Auberge du Pommier,French,French,French,4.0,"4150 Yonge Street, Toronto",43.746823,-79.407773,406,4421.94,14162222220,False,$$$$,Toronto
Pai Northern Thai Kitchen,Thai,Thai,Thai,4.0,"2335 Yonge Street, Toronto",43.70864,-79.39828,156,2771.0,14169014724,False,$$$$,Toronto
Zezafoun Syrian Cuisine,"Syrian, Middle Eastern, Arabic",Syrian,Middle Eastern,4.5,"4 Manor Road E, Toronto",43.70267,-79.39712,119,3005.92,14163227707,False,$$,Toronto
Yukashi Japanese Cuisine,Japanese,Japanese,Japanese,4.5,"643A Mount Pleasant Road, Toronto",43.70495,-79.3885,50,3599.54,14164896993,False,$$$$,Toronto
Phat Kaphrao,Thai,Thai,Thai,4.5,"3016B Bathurst Street, Toronto",43.717941,-79.429708,41,771.85,14167894085,False,$$$$,Toronto
Bolan Thai Cuisine,"Thai, Desserts, Noodles",Desserts,Thai,4.0,"709 Mount Pleasant Road, Toronto",43.706481,-79.389336,105,3512.67,16473441233,False,$$,Toronto
7 Numbers Restaurant,Italian,Italian,Italian,4.0,"516 Eglinton Avenue W, Toronto",43.70372,-79.4137,118,1737.8,14163225183,False,$$,Toronto
El Pocho Antojitos Bar,"Bars, Breakfast & Brunch, Mexican",Bars,Mexican,4.5,"2 Follis Avenue, Toronto",43.66963,-79.41338,84,4880.67,14165518131,False,$$,Toronto
Tabule Restaurant,"Middle Eastern, Vegan, Vegetarian",Middle Eastern,Middle Eastern,4.0,"2009 Yonge Street, Toronto",43.700983,-79.396863,290,3087.85,14164833747,False,$$,Toronto
Hokkaido Ramen Santouka,Ramen,Ramen,NA,4.5,"2057 Yonge St, Toronto",43.70213,-79.39708,61,3023.4,16473511163,False,$$,Toronto
Maker Pizza,Pizza,Pizza,NA,4.0,"1537 Avenue Road, Toronto",43.722988,-79.415293,114,1900.79,14167822000,False,$$,Toronto
Napoli Centrale,"Italian, Pizza",Pizza,Italian,4.5,"964 Bathurst Street, Toronto",43.669518,-79.412974,64,4905.13,14169016791,False,$$,Toronto
Shoushin,"Japanese, Sushi Bars",Sushi Bars,Japanese,4.0,"3328 Yonge Street, Toronto",43.73133,-79.40416,89,3194.64,14164889400,False,$$$$,Toronto
Gyubee Japanese Grill - Bloor,"Barbeque, Japanese",Barbeque,Japanese,4.0,"335 Bloor Street W, Toronto",43.66716,-79.40047,324,5538.91,14165519767,False,$$$,Toronto
Mineral,"Noodles, Seafood, Asian Fusion",Seafood,Asian Fusion,4.5,"1027 Yonge Street, Toronto",43.67763,-79.38947,26,5099.27,14169258565,False,$$$,Toronto
Blooming Orchid,"Chinese, Sushi Bars, Asian Fusion",Sushi Bars,"Chinese, Asian Fusion",4.5,"525 Eglinton Ave West, Toronto",43.70327,-79.41388,25,1743.37,14164813825,False,$$$,Toronto
Jerusalem Restaurant,Middle Eastern,Middle Eastern,Middle Eastern,4.0,"955 Eglinton Avenue W, York",43.70001,-79.42889,98,1262.95,14167836494,False,$$,Toronto
Hotel Gelato,"Desserts, Ice Cream & Frozen Yogurt, Cafes","Desserts, Cafes",NA,4.0,"532 Eglinton Avenue W, Toronto",43.70357,-79.41432,69,1693.69,14169322663,False,$$,Toronto
Opus Restaurant,"Wine Bars, Modern European",Wine Bars,Modern European,4.0,"37 Prince Arthur Avenue, Toronto",43.66921,-79.39723,75,5475.02,14169213105,False,$$$$,Toronto
Khau Gully,Indian,Indian,Indian,4.0,"1991 Yonge Street, Toronto",43.70055,-79.39673,100,3109.25,<NA>,False,$$,Toronto
The Abbot on Eglinton,Gastropubs,Gastropubs,NA,4.0,"508 Eglinton Avenue W, Toronto",43.703647,-79.413525,41,1748.62,14164878350,False,$$,Toronto
Marron Bistro,"Steakhouses, Kosher, Bistros",Steakhouses,NA,4.5,"948 Eglinton Avenue W, Toronto",43.70054,-79.42866,14,1243.78,14167840128,False,$$$,Toronto
The Queen And Beaver Public House,"Pubs, British",Pubs,British,4.0,"35 Elm Street, Toronto",43.65734,-79.38334,413,90.22,16473472712,False,$$,Toronto
Sansotei Ramen,"Ramen, Noodles",Ramen,NA,4.0,"179 Dundas Street W, Toronto",43.655,-79.38643,944,277.38,16477483833,False,$$,Toronto
Adega Restaurante,"Portuguese, Spanish",Portuguese,NA,4.0,"33 Elm St, Toronto",43.65732,-79.38323,162,94.68,14169774338,False,$$$,Toronto
Katsuya,"Japanese, Asian Fusion",Japanese,"Japanese, Asian Fusion",4.5,"66 Gerrard Street E, Toronto",43.65995,-79.37882,503,557.45,14165917756,False,$$,Toronto
Konjiki Ramen Downtown,Ramen,Ramen,NA,4.0,"41 Elm Street, Toronto",43.65729,-79.38358,116,65.56,14165196794,False,$$,Toronto
Koh Lipe,Thai,Thai,Thai,4.0,"35 Baldwin Street, Toronto",43.65586,-79.39347,279,745.71,14165999988,False,$$,Toronto
Blaze Pizza,"Pizza, Salad, Fast Food","Pizza, Fast Food",NA,4.5,"10 Dundas St. East, Toronto",43.656531,-79.380043,586,344.6,16479331028,False,$$,Toronto
Mogouyan Hand-Pulled Noodles,"Noodles, Chinese",Noodles,Chinese,4.5,"124 Dundas St W, Toronto",43.65573,-79.38449,78,139.56,<NA>,False,$$,Toronto
Barberian's Steak House,Steakhouses,Steakhouses,NA,4.0,"7 Elm Street, Toronto",43.6576,-79.38212,321,186.53,14165970335,False,$$$$,Toronto
Cafe Oro Di Napoli,"Pizza, Italian",Pizza,Italian,4.5,"75 Jarvis Street, Toronto",43.651426,-79.372159,103,1152.53,14163157979,False,$$,Toronto
Ikkousha Ramen,Ramen,Ramen,NA,4.5,"249 Queen Street W, Toronto",43.65024,-79.38873,314,826.04,14169012249,False,$$,Toronto
Carisma,Italian,Italian,Italian,4.0,"15 Toronto Street, Toronto",43.65032,-79.37596,202,998.97,14168647373,False,$$$,Toronto
Seven Lives Tacos y Mariscos,Mexican,Mexican,Mexican,4.5,"72 Kensington Avenue, Toronto",43.65449,-79.40083,1489,1358.21,14163934636,False,$,Toronto
Kōjin,"Canadian (New), Wine Bars, Cocktail Bars","Wine Bars, Cocktail Bars",Canadian (New),4.0,"190 University Ave, Toronto",43.64933,-79.386398,109,863.09,16472538000,False,$$$,Toronto
KINTON RAMEN CHURCH,"Ramen, Noodles",Ramen,NA,4.0,"396 Church Street, Toronto",43.660311,-79.3789,225,569.15,16473488555,False,$$,Toronto
Kiin,Thai,Thai,Thai,4.0,"326 Adelaide Street W, Toronto",43.647622,-79.3921,221,1211.86,16474905040,False,$$$,Toronto
Storm Crow Manor,"Bars, American",Bars,American,4.0,"580 Church Street, Toronto",43.666749,-79.381643,152,1111.21,14163672769,False,$$,Toronto
Donatello Restaurant,"Italian, Seafood, Wine Bars","Seafood, Wine Bars",Italian,4.0,"37 Elm Street, Toronto",43.657425,-79.383474,187,84.84,14165955001,False,$$$,Toronto
Zakkushi On Carlton,"Japanese, Tapas/Small Plates, Barbeque",Barbeque,Japanese,4.0,"193 Carlton Street, Toronto",43.66343,-79.37062,329,1026.33,16473529455,False,$$$,Toronto
W Burger Bar,"Burgers, Bars","Burgers, Bars",NA,3.5,"10 College Street, Toronto",43.661462,-79.383643,306,45.19,14169612227,False,$$,Toronto
Gurume Sushi,Sushi Bars,Sushi Bars,NA,5.0,"45 Carlton Street, Toronto",43.661391,-79.380995,56,168.28,14169018333,False,$$,Toronto
Hair of the Dog,"Pubs, Comfort Food, Breakfast & Brunch",Pubs,NA,4.0,"425 Church Street, Toronto",43.662947,-79.379593,371,329.37,14169642708,False,$$,Toronto
The House On Parliament,"British, Gastropubs",Gastropubs,British,4.0,"454 Parliament Street, Toronto",43.66359,-79.36794,318,1244.54,14169254074,False,$$,Toronto
Yoyo Japanese Restaurant,Japanese,Japanese,Japanese,4.5,"348 Guelph Street, Georgetown",43.648485,-79.882705,40,1849.38,19058777846,False,$$,Toronto
Shoeless Joe's Sports Grill - Georgetown,"Sports Bars, Burgers, Beer Bar","Sports Bars, Burgers, Beer Bar",NA,4.0,"367 Guelph St, Georgetown",43.64941,-79.87969,13,1622.95,19058733157,False,$$,Toronto
BK Bar And Grill,"Indian, Bars",Bars,Indian,5.0,"525 Guelph Street, Norval",43.647075,-79.858514,2,161.1,<NA>,False,$$,Toronto
Epic Pita,"Mediterranean, Halal",Mediterranean,Mediterranean,4.0,"15 Ashby Field Road, Brampton",43.672616,-79.821623,26,4268.73,19054523838,False,$,Toronto
Lily Thai Cuisine,Thai,Thai,Thai,3.5,"15 Ashby Field Road, Brampton",43.672452,-79.821177,64,4282.21,19058741688,False,$$,Toronto
Symposium Cafe Restaurant - Georgetown,"Breakfast & Brunch, Desserts, Diners",Desserts,NA,3.0,"235 Guelph St, Georgetown",43.650412,-79.896329,33,2965.5,19058772222,False,$$,Toronto
Hakka Place,Hakka,Hakka,NA,4.0,"42-360 Guelph Street, Georgetown",43.648412,-79.881396,8,1743.99,19058734787,False,$$,Toronto
Louanne's Famous Fries,"Burgers, Hot Dogs, Sandwiches","Burgers, Sandwiches",NA,4.5,"9989 Trafalgar Road, Georgetown",43.607759,-79.893788,12,5056.08,19057031201,False,$,Toronto
A&W,"Fast Food, Burgers","Fast Food, Burgers",NA,4.0,"317 Guelph Street, Georgetown",43.649923,-79.887823,4,2282.16,19057021227,False,$,Toronto
Mangia Bene,"Food Trucks, Italian",Food Trucks,Italian,5.0,"375 Guelph Street, Halton Hills",43.64939,-79.879321,1,1600.63,14169087209,False,$,Toronto
Kyoto Sushi,Japanese,Japanese,Japanese,3.0,"6 Mountainview Road S, Georgetown",43.649494,-79.903435,28,3518.39,19058779791,False,$$,Toronto
Sunset Grill,"Breakfast & Brunch, Diners, Canadian (New)",Breakfast & Brunch,Canadian (New),3.5,"1-9525 Mississauga Rd, Brampton",43.658365,-79.816897,9,3724.56,19054566400,False,$$,Toronto
Bibab Express,"Sushi Bars, Korean",Sushi Bars,Korean,4.5,"280 Guelph Street, Halton Hills",43.648513,-79.899271,2,3174.39,19057022562,False,$$,Toronto
Da Chef's Padella,Italian,Italian,Italian,2.5,"525 Guelph Street, Halton Hills",43.647121,-79.85839,4,171.88,19058777577,False,$$,Toronto
Wild Wing,"Burgers, American, Sandwiches","Burgers, Sandwiches",American,3.0,"371 Mountainview Road S, Georgetown",43.631225,-79.875129,9,2053.31,19058779911,False,$$,Toronto
Angel's Diner,Diners,Diners,NA,3.5,"220 Guelph Street, Georgetown",43.649925,-79.903893,25,3560.44,19058770289,False,$$,Toronto
A&W,"Burgers, Fast Food","Burgers, Fast Food",NA,4.5,"10625 Mississauga Road & Sandalwood Parkway, Brampton",43.680235,-79.844664,3,3992.79,19058467917,False,$$,Toronto
Popeyes Louisiana Kitchen,"Fast Food, Chicken Wings",Fast Food,NA,4.0,"17 Worthington Avenue, Brampton",43.681729,-79.815111,7,5360.4,19058403500,False,$$,Toronto
Southpaw Coffee Bar and Cafe,"Cafes, Pizza","Cafes, Pizza",NA,4.0,"221 Miller Drive, Georgetown",43.63071,-79.9003,7,3667.6,19058774664,False,$$,Toronto
Traditional Taste Bakery & Cafe,"Bakeries, Cafes, Breakfast & Brunch",Cafes,NA,4.0,"211 Guelph Street, Georgetown",43.65049,-79.90088,3,3340.96,19057020081,False,$$,Toronto
The Barber Towne Pub,"Pubs, Chicken Wings, Salad",Pubs,NA,2.5,"360 Guelph Street, Georgetown",43.649077,-79.880903,3,1717.66,19058732188,False,$$,Toronto
G T Dragon Chinese Restaurant,Chinese,Chinese,Chinese,2.0,"369 Mountainview Road S, Georgetown",43.631727,-79.875783,18,2041.1,19057028688,False,$$,Toronto
Kelseys Original Roadhouse,"Comfort Food, Bars, Canadian (New)",Bars,Canadian (New),2.5,"256 Guelph St, Georgetown",43.64921,-79.89553,10,2910.51,19058777150,False,$$,Toronto
Kung Pao Wok,Asian Fusion,Asian Fusion,Asian Fusion,5.0,"27 Mountainview Road S, Halton Hills",43.648526,-79.89938,2,3183.26,<NA>,False,$$,Toronto
Georgetown Thai Gourmet,Thai,Thai,Thai,3.5,"232A Guelph Street, Halton Hills",43.65,-79.90309,5,3457.78,19058732754,False,$$,Toronto
Mary Brown's,"Chicken Shop, Chicken Wings",Chicken Shop,NA,5.0,"306 Guelph Street, Georgetown",43.649352,-79.894916,1,2835.91,19058738282,False,$$,Toronto
Swiss Chalet Rotisserie & Grill,"Comfort Food, American",Comfort Food,American,1.5,"320 Guelph St, Georgetown",43.64908,-79.89057,13,2483.9,19058736392,False,$$$,Toronto
Mega Burger & More,Burgers,Burgers,NA,4.0,"10 Mountain View Road S, Georgetown",43.649261,-79.902517,2,3445.34,19058775177,False,$$$,Toronto
SMASH,"Burgers, Halal",Burgers,NA,5.0,"3 Sidford Road, Brampton",43.675768,-79.822714,1,4458.63,19054951414,False,$$$,Toronto
Boston Pizza,Pizza,Pizza,NA,2.0,"319 Guelph Street, Georgetown",43.649837,-79.887221,11,2232.74,19058778005,False,$$$$,Toronto
Food Cabbie,"Food Trucks, American",Food Trucks,American,4.0,", Toronto",43.653248,-79.375191,5,39042.75,16472272628,False,$,Toronto
Pizza Hut,"Pizza, Chicken Wings, Fast Food","Pizza, Fast Food",NA,3.5,"378 Mountainview Road South, Georgetown",43.629923,-79.877448,3,2281.58,19058770100,False,$,Toronto
Harvey's & Swiss Chalet Combo,"Burgers, Fast Food, American","Burgers, Fast Food",American,3.0,"320 Guelph St, Georgetown",43.64908,-79.89057,3,2483.9,19058736392,False,$,Toronto
Frisco Fries,"Fast Food, Chicken Wings",Fast Food,NA,4.0,"280 Guelph Street, Halton Hills",43.649732,-79.895552,2,2797.13,19058733119,False,$,Toronto
Subway,"Sandwiches, Fast Food","Sandwiches, Fast Food",NA,5.0,"17 Worthington Avenue, Brampton",43.681565,-79.815145,1,5345.07,19058404355,False,$,Toronto
Topper's Pizza,"Pizza, Chicken Wings, Fast Food","Pizza, Fast Food",NA,2.5,"5 Mountainview Road N, Halton Hills",43.651114,-79.903425,6,3545.27,18664546644,False,$$,Toronto
Guru Sweets & Restaurant,Indian,Indian,Indian,2.0,"15 Fandor Way, Brampton",43.690381,-79.815529,15,6086.4,19058402200,False,$$,Toronto
Pita Pit,Sandwiches,Sandwiches,NA,1.5,"235 Guelph Street, Georgetown",43.650501,-79.89691,2,3013.29,19058738555,False,$$,Toronto
Stacked Pancake & Breakfast House,"Breakfast & Brunch, Burgers, Sandwiches","Burgers, Sandwiches",NA,2.0,"280 Guelph Street, Georgetown",43.64908,-79.894478,1,2797.13,19057025500,False,$$,Toronto
Pizza Pizza,Pizza,Pizza,NA,2.5,"216 Guelph Street, Georgetown",43.650295,-79.904246,8,3593.83,14169671111,False,$,Toronto
Osmow's,Mediterranean,Mediterranean,Mediterranean,2.0,"5 Mountainview Road N, Georgetown",43.65106,-79.90307,6,3545.27,19058733100,False,$,Toronto
Biryani Culture,"Indian, Pakistani, Halal",Indian,Indian,3.5,"3 Sidford Road, Brampton",43.67579,-79.82268,5,4463.97,16475182619,False,$,Toronto
Domino's Pizza,"Pizza, Chicken Wings, Fast Food","Pizza, Fast Food",NA,3.5,"324 Guelph Street, Georgetown",43.648746,-79.890105,2,2443.42,19057028800,False,$$,Toronto
Shaf's Pizza And Broast,Pizza,Pizza,NA,3.0,"15 Ashby Field Road, Brampton",43.672127,-79.821251,9,4316.87,19054509595,False,$$,Toronto
A&W,"Fast Food, Burgers","Fast Food, Burgers",NA,1.5,"375 Mountainview Road South, Georgetown",43.630599,-79.875804,2,2141.57,19058739982,False,$$,Toronto
Quesada Burritos & Tacos,Mexican,Mexican,Mexican,3.0,"5 Mountainview North, Georgetown",43.65106,-79.90307,2,3545.32,19058731212,False,$$,Toronto
Wild Wing,"Burgers, Fast Food, Chicken Wings","Burgers, Fast Food",NA,1.5,"17 Worthington Avenue, Brampton",43.6819,-79.81549,17,5350.84,19058460666,False,$$,Toronto
McDonald's,"Fast Food, Burgers, Coffee & Tea","Fast Food, Burgers, Coffee & Tea",NA,2.0,"9521 Mississauga Road, Brampton",43.657549,-79.815574,3,3792.34,19054568833,False,$,Toronto
Little Ceasars,Pizza,Pizza,NA,2.5,"211 Guelph Street, Georgetown",43.650577,-79.900919,2,3333.15,19058739197,False,$,Toronto
McDonald's,"Fast Food, Burgers, Coffee & Tea","Fast Food, Burgers, Coffee & Tea",NA,2.0,"9485 Mississauga Road, Brampton",43.657546,-79.815571,4,3792.43,19058748139,False,$,Toronto
Grey Gardens,"Wine Bars, Canadian (New)",Wine Bars,Canadian (New),4.5,"199 Augusta Avenue, Toronto",43.6538,-79.40143,131,2656.44,16473511552,False,$$$,Toronto
Korean Village Restaurant,Korean,Korean,Korean,4.0,"628 Bloor Street W, Toronto",43.66461,-79.41444,431,1066.97,14165360290,False,$$,Toronto
Good Fork,"Breakfast & Brunch, Canadian (New)",Breakfast & Brunch,Canadian (New),4.0,"1550 Dundas Street W, Toronto",43.649878,-79.433416,397,3215.37,16473525955,False,$$,Toronto
Pizzeria Defina,"Pizza, Italian",Pizza,Italian,4.0,"321 Roncesvalles Ave, Toronto",43.64875,-79.44955,151,3187.57,14165344414,False,$$,Toronto
Stelvio,Italian,Italian,Italian,4.0,"791 Dundas Street W, Toronto",43.65168,-79.40769,126,4210.02,<NA>,False,$$,Toronto
Islas Filipino BBQ and Bar,"Filipino, Bars",Bars,Filipino,4.5,"1690 Queen Street W, Toronto",43.6393,-79.4446,88,4234.54,14165330777,False,$$,Toronto
Marcello’s pizzeria,"Pizza, Italian",Pizza,Italian,4.0,"1163 Saint Clair Avenue W, Toronto",43.67783,-79.44254,103,304.96,14166566159,False,$$,Toronto
Giulietta,Italian,Italian,Italian,4.0,"972 College Street, Toronto",43.65353,-79.42764,137,3036.49,14169640606,False,$$$,Toronto
Hank Daddy's Barbecue,"Southern, Barbeque, Sandwiches","Barbeque, Sandwiches",NA,4.0,"7777 Keele Street, Vaughan",43.801234,-79.498782,156,3443.85,19054174545,False,$$,Toronto
Banh Mi Boys,Sandwiches,Sandwiches,NA,4.0,"95 The Pond Road, Toronto",43.770245,-79.50058,18,354.26,16472455508,False,$$,Toronto
The Islands Caribbean Restaurant,Caribbean,Caribbean,Caribbean,4.0,"4700 Keele Street, Toronto",43.773843,-79.50276,21,403.15,14165141818,False,$,Toronto
Panino Cappuccino,"Italian, Venues & Event Spaces, Pizza",Pizza,Italian,4.5,"3218 Weston Road, Toronto",43.73851,-79.540013,26,4543.66,14167414646,False,$$,Toronto
Bosphorus Turkish Cuisine,"Turkish, Salad, Juice Bars & Smoothies",Juice Bars & Smoothies,NA,4.5,"17-4205 Keele Street, North York",43.773595,-79.492086,11,1086.97,16473488000,False,$$,Toronto
Anna Maria Trattoria,Italian,Italian,Italian,4.0,"2900 Langstaff Road, Concord",43.813584,-79.525417,68,5055.08,19055320004,False,$$$,Toronto
Aroma Espresso Bar,Cafes,Cafes,NA,3.5,"105 The Pond Road, Toronto",43.769854,-79.501933,15,256.85,16472455504,False,$$$,Toronto
PHO 128,"Vietnamese, Noodles",Vietnamese,Vietnamese,4.5,"207 Edgeley Boulevard, Concord",43.79786,-79.5321,54,3751.92,19056603354,False,$$,Toronto
Pita Golden Pocket,"Middle Eastern, Falafel",Middle Eastern,Middle Eastern,4.5,"2104 Highway 7 W, Vaughan",43.802186,-79.495121,108,3601.5,19055320405,False,$,Toronto
La Luce Ristorante,"Italian, Seafood",Seafood,Italian,4.0,"4377 Steeles Avenue W, Toronto",43.77315,-79.53146,20,2128.72,14166618989,False,$$,Toronto
Break Room,"Burgers, Lounges, Arcades",Burgers,NA,2.5,"York Student Centre, Toronto",43.774084,-79.502381,33,440.88,14167365606,False,$$,Toronto
Ann's Congee,Chinese,Chinese,Chinese,4.0,"1102 Centre Street, Vaughan",43.80878,-79.461611,103,5490.67,19058895948,False,$$,Toronto
Pita Pit,Sandwiches,Sandwiches,NA,4.5,"4205 Keele Street, North York",43.773841,-79.492131,11,1092.34,14166617482,False,$,Toronto
Centre Street Deli,Delis,Delis,NA,4.0,"1136 Centre Street, Thornhill",43.809219,-79.463044,145,5456.84,19057318037,False,$$,Toronto
Shopsy's Sports Grill,"Delis, Burgers, Sandwiches","Burgers, Sandwiches",NA,2.5,"4700 Keele Street, Toronto",43.774078,-79.502331,28,442.2,14167364884,False,$$,Toronto
Ciao Roma,"Italian, Pizza",Pizza,Italian,4.0,"28 Roytech Road, Vaughan",43.803829,-79.549797,67,5161.12,19052642121,False,$$,Toronto
Malado Sushi,"Japanese, Korean, Sushi Bars",Sushi Bars,"Japanese, Korean",4.0,"2437 Finch Avenue W, Toronto",43.749944,-79.549204,53,4229.66,14167419728,False,$$,Toronto
Creole Jamaican Kitchen + Bar,"Caribbean, Bars",Bars,Caribbean,4.0,"7887 Weston road, Woodbridge",43.7922,-79.54733,35,4162.5,19058561555,False,$$,Toronto
Beijing Sung,"Korean, Chinese",Korean,"Korean, Chinese",4.0,"2150 Steeles Avenue W, Vaughan",43.78302,-79.49127,45,1740.33,19056601352,False,$$,Toronto
168 Sushi Asian Buffet,"Buffets, Asian Fusion, Sushi Bars",Sushi Bars,Asian Fusion,3.5,"1520 Steeles Avenue W, Vaughan",43.78738,-79.471494,307,3272.43,19057601680,False,$$,Toronto
Osmow's,Mediterranean,Mediterranean,Mediterranean,3.0,"4205 Keele Street, North York",43.77361,-79.4921,25,1092.06,12892160113,False,$$,Toronto
Basil Box,"Vietnamese, Thai, Gluten-Free",Vietnamese,"Vietnamese, Thai",4.0,"105 The Pond Road, Toronto",43.76997,-79.50187,7,257.93,14379985000,False,$$,Toronto
Moxies,"Canadian (New), Steakhouses, Lounges",Steakhouses,Canadian (New),3.5,"30 Colossus Dr, Vaughan",43.787151,-79.543407,88,3594.04,19052658090,False,$$,Toronto
Pho Real,Vietnamese,Vietnamese,Vietnamese,4.0,"26-8099 Weston Rd, Vaughan",43.798134,-79.549313,161,4696.4,19058518989,False,$$,Toronto
LIMITLESS Bar & Grill,"Barbeque, Sports Bars, Asian Fusion","Barbeque, Sports Bars",Asian Fusion,4.0,"1450 Centre Street, Thornhill",43.80663,-79.47308,32,4756.62,19055975252,False,$$,Toronto
Aldo's Restaurant Peruvian Food,"Peruvian, Buffets",Peruvian,Peruvian,4.0,"750 Oakdale Road, Toronto",43.751588,-79.526644,12,2737.42,14167415914,False,$$,Toronto
Bun Bo Hue,Vietnamese,Vietnamese,Vietnamese,4.0,"2385 Finch Ave W, North York",43.75126,-79.54368,76,3773.8,14167477336,False,$,Toronto
Mi Ne Japanese Restaurant,"Japanese, Sushi Bars",Sushi Bars,Japanese,4.0,"10815 Yonge Street, Richmond Hill",43.89142,-79.4412,303,2286.99,19058836616,False,$$,Toronto
Aneal's Taste of the Islands,Caribbean,Caribbean,Caribbean,4.5,"10220 Yonge Street, Richmond Hill",43.876637,-79.4387,166,3086.05,19052377186,False,$$,Toronto
Oyaji Sushi,"Japanese, Korean",Japanese,"Japanese, Korean",4.0,"10341 Yonge Street, Richmond Hill",43.87981,-79.438423,138,2916.11,19052376272,False,$$,Toronto
Bueokae Korean Restaurant - Love's Kitchen,Korean,Korean,Korean,4.5,"10737 Yonge St, Richmond Hill",43.89038,-79.44035,207,2365.03,19052370737,False,$$,Toronto
Joe's Hamburgers,"Burgers, Fast Food, Mediterranean","Burgers, Fast Food",Mediterranean,4.0,"10825 Yonge Street, Richmond Hill",43.891639,-79.441442,129,2263.3,19058844846,False,$$,Toronto
Mitsui Sushi,"Japanese, Sushi Bars, Bubble Tea",Sushi Bars,Japanese,3.5,"10815 Bathurst Street, Richmond Hill",43.88508,-79.46746,53,935.45,19058841188,False,$$,Toronto
Pho Tai Bac,"Vietnamese, Soup",Vietnamese,Vietnamese,4.0,"9555 Yonge Street, Richmond Hill",43.859898,-79.433868,226,4681.0,19052377228,False,$$,Toronto
Cotolet Premium Cutlet,Japanese,Japanese,Japanese,4.5,"9631 Yonge Street, Richmond Hill",43.862677,-79.434587,100,4403.65,19055089631,False,$$,Toronto
Super Bowl Pho Restaurant,Vietnamese,Vietnamese,Vietnamese,4.0,"10593 Yonge Street, Richmond Hill",43.88582,-79.439977,54,2511.78,19055085885,False,$$,Toronto
Sansotei Ramen,Ramen,Ramen,NA,4.0,"9555 Yonge Street, Richmond Hill",43.859122,-79.434177,101,4734.72,19058840707,False,$$,Toronto
BB Cafe,"Coffee & Tea, Bakeries, Persian/Iranian",Coffee & Tea,Persian/Iranian,4.0,"10067 Yonge Street, Richmond Hill",43.872945,-79.437554,109,3415.8,19052376565,False,$$,Toronto
ParsGrill,Persian/Iranian,Persian/Iranian,Persian/Iranian,4.5,"975 Major Mackenzie Dr, Vaughan",43.864395,-79.469599,43,3202.33,19055533353,False,$$,Toronto
Andolini’s,"Italian, Bakeries, Breakfast & Brunch",Italian,Italian,4.5,"14 Oxford Street, Richmond Hill",43.887128,-79.442539,14,2271.37,19057706390,False,$$,Toronto
Grill Gate,Burgers,Burgers,NA,4.5,"10185 Yonge Street, Richmond Hill",43.87577,-79.437995,24,3189.23,19057371167,False,$$,Toronto
El Bocho,Mexican,Mexican,Mexican,3.5,"10133 Yonge Street, Richmond Hill",43.87472,-79.437649,75,3283.04,19052374345,False,$$,Toronto
Citro Italian Restaurant,Italian,Italian,Italian,4.0,"10123 Yonge Street, Richmond Hill",43.87428,-79.4375,61,3309.44,19052376800,False,$$,Toronto
Mexican Amigos,Mexican,Mexican,Mexican,3.0,"10720 Yonge Street, Richmond Hill",43.889148,-79.44209,163,2250.23,19057800303,False,$$,Toronto
Tomo Japanese Restaurant,"Japanese, Sushi Bars",Sushi Bars,Japanese,3.5,"9625 Yonge Street, Richmond Hill",43.860783,-79.434133,263,4590.38,19057702129,False,$$,Toronto
Rhapsody Continental Hungarian Cuisine,Hungarian,Hungarian,NA,4.0,"10152 Yonge Street, Richmond Hill",43.87489,-79.43846,50,3232.11,19058840305,False,$$,Toronto
Stroganoff Restaurant,Modern European,Modern European,Modern European,4.0,"10 Headdon Gate, Richmond Hill",43.8672,-79.45876,33,3012.69,19057807575,False,$$,Toronto
Big Bone BBQ & Wicked Wings,"Chicken Wings, Barbeque, Southern",Barbeque,NA,4.0,"10040 Keele Street, Maple",43.85596,-79.51363,93,5450.39,12893049000,False,$$,Toronto
Eagles Nest Golf Club,"American, Golf, Venues & Event Spaces",American,American,4.0,"10000 Dufferin St, Maple",43.863626,-79.488317,19,3636.92,19054172300,False,$$$$,Toronto
Chillax & Co,"Breakfast & Brunch, Cocktail Bars, Bistros",Cocktail Bars,NA,4.0,"9580 Yonge Street, Richmond Hill",43.861211,-79.435546,24,4483.25,19057878666,False,$$$$,Toronto
Cafe Landwer - Rutherford & Bathurst,"Cafes, Breakfast & Brunch, Mediterranean",Cafes,Mediterranean,3.5,"9340 Bathurst Street, Maple",43.849172,-79.460006,281,4955.1,19054170707,False,$$,Toronto
Crust Baking Company,"Bakeries, Coffee & Tea, Breakfast & Brunch",Coffee & Tea,NA,5.0,"9610 Yonge Street, Richmond Hill",43.862022,-79.435424,17,4418.14,12893797776,False,$$,Toronto
Yummy Korea,"Japanese, Korean, Soup",Japanese,"Japanese, Korean",4.0,"10231 Yonge Street, Richmond Hill",43.87705,-79.4378,24,3097.38,19057701777,False,$$,Toronto
Unome Sushi,"Sushi Bars, Japanese",Sushi Bars,Japanese,4.5,"9301 Bathurst Street, Richmond Hill",43.84899,-79.4583,23,5036.14,19052373355,False,$$,Toronto
Pancer's Deli Emporium,"Delis, Fish & Chips, Sandwiches",Sandwiches,NA,4.0,"9960 Dufferin Street, Vaughan",43.859898,-79.489024,26,4016.21,19054171719,False,$$,Toronto
Golden Bubbles,"Waffles, Ice Cream & Frozen Yogurt",Waffles,NA,3.5,"11000 Yonge Street, Richmond Hill",43.895703,-79.443585,52,2103.47,19052372160,False,$$,Toronto
Fuwa Fuwa Japanese Pancakes,"Pancakes, Desserts, Coffee & Tea","Desserts, Coffee & Tea",NA,4.0,"9342 Bathurst St, Vaughan",43.84909,-79.45983,32,4981.21,19058326032,False,$$,Toronto
bb.q Chicken,"Korean, Chicken Shop, Chicken Wings",Korean,Korean,4.0,"9737 Yonge St, Richmond Hill",43.865655,-79.434895,61,4137.19,19058836222,False,$$,Toronto
Sunnyside Grill,"Breakfast & Brunch, Burgers",Burgers,NA,3.5,"10620 Yonge Street, Richmond Hill",43.88605,-79.44184,31,2449.92,19052371184,False,$$,Toronto
Chicken N' Dough Express,"Chicken Wings, Burgers, Poutineries",Burgers,NA,4.5,"10737 Yonge Street, Richmond Hill",43.890328,-79.440718,9,2336.6,19054752809,False,$$,Toronto
Sofra Mediterranean Cuisine,"Mediterranean, Turkish",Mediterranean,Mediterranean,3.0,"380 Tower Hill Road, Richmond Hill",43.913723,-79.473839,46,2307.83,19057879797,False,$$,Toronto
Tangerine Asian Cuisine,Asian Fusion,Asian Fusion,Asian Fusion,3.5,"12260 Yonge Street, Richmond Hill",43.926213,-79.451164,60,3957.63,19053138686,False,$,Toronto
My Roti Place/My Dosa Place,"Indian, Breakfast & Brunch",Indian,Indian,4.5,"1430 Major MacKenzie Dr W, Vaughan",43.862196,-79.485731,18,3688.12,<NA>,False,$,Toronto
Mr Congee Chinese Cuisine,Chinese,Chinese,Chinese,3.0,"9712 Yonge Street, Richmond Hill",43.8642,-79.43632,148,4175.33,19052376862,False,$$,Toronto
Midori Ramen,Ramen,Ramen,NA,4.0,"9625 Yonge Street, Richmond Hill",43.860886,-79.434748,25,4551.01,16477971988,False,$$,Toronto
Aira Sushi,Japanese,Japanese,Japanese,4.0,"10459 Yonge Street, Richmond Hill",43.88261,-79.43895,22,2724.0,19052378108,False,$$,Toronto
Vivo Pizza + Pasta,Italian,Italian,Italian,3.5,"9301 Bathurst Street, Richmond Hill",43.84899,-79.4583,68,5082.55,19058838486,False,$$,Toronto
Odd Burger,"Burgers, Fast Food, Desserts","Burgers, Fast Food, Desserts",NA,4.0,"9960 Dufferin Street, Vaughan",43.859571,-79.488931,13,4046.9,18002862145,False,$$,Toronto
Nando's Peri-Peri,"Portuguese, Chicken Shop, Fast Food",Fast Food,NA,3.0,"9625 Yonge Street, Richmond Hill",43.861422,-79.433552,122,4564.19,19055086500,False,$$,Toronto
Duff's Famous Wings,Chicken Wings,Chicken Wings,NA,3.0,"9360 Bathurst St, Vaughan",43.849642,-79.459929,105,4904.52,19058325005,False,$$,Toronto
Akane Sushi Express,"Sushi Bars, Japanese",Sushi Bars,Japanese,4.5,"361 Carrville Road, Richmond Hill",43.850115,-79.444765,11,5187.55,19058819796,False,$$,Toronto
Oregano Pizza & Pasta,"Italian, Pizza",Pizza,Italian,3.5,"10909 Yonge Street, Richmond Hill",43.893506,-79.439579,40,2406.2,19058848600,False,$$,Toronto
Sarko Georgian Restaurant,Pan Asian,Pan Asian,Pan Asian,4.0,"1480 Major MacKenzie Drive, Vaughan",43.862711,-79.487196,23,3671.08,19054174664,False,$$,Toronto
Halibut House,"Fish & Chips, Breakfast & Brunch, Seafood",Seafood,NA,4.5,"1840 Major MacKenzie Drive W, Vaughan",43.858512,-79.49944,14,4420.23,19053030988,False,$$,Toronto
Afghan Cuisine,Afghan,Afghan,NA,3.5,"10909 Yonge Street, Richmond Hill",43.893131,-79.440487,37,2333.22,19052377177,False,$$,Toronto
AllStar Wings & Ribs,"Chicken Wings, Barbeque, Sports Bars","Barbeque, Sports Bars",NA,3.0,"10520 Yonge Street, Richmond Hill",43.883571,-79.440687,122,2552.51,19057374917,False,$$,Toronto
Tochal,Persian/Iranian,Persian/Iranian,Persian/Iranian,4.0,"10255 Yonge Street, Richmond Hill",43.877574,-79.43825,14,3061.71,19057878080,False,$$,Toronto
Wvrst,"German, Beer Bar",Beer Bar,German,4.0,"609 King Street W, Toronto",43.644186,-79.401015,834,3610.38,14167037775,False,$$,Toronto
Pizzeria Libretto,"Pizza, Italian",Pizza,Italian,4.0,"221 Ossington Avenue, Toronto",43.64898,-79.42021,566,2426.28,14165328000,False,$$,Toronto
Daldongnae Korean BBQ - Christie,"Korean, Barbeque",Barbeque,Korean,4.5,"658 Bloor Street, Toronto",43.66434,-79.41566,95,1186.97,14169012820,False,$$$,Toronto
Mezes,"Greek, Mediterranean",Greek,"Greek, Mediterranean",4.0,"456 Danforth Avenue, Toronto",43.67814,-79.350248,265,270.12,14167785150,False,$$,Toronto
Descendant Detroit Style Pizza,Pizza,Pizza,NA,4.5,"1168 Queen Street E, Toronto",43.662889,-79.332404,448,2488.78,16473471168,False,$$,Toronto
Pantheon Restaurant,"Greek, Mediterranean",Greek,"Greek, Mediterranean",4.0,"407 Danforth Avenue, Toronto",43.67744,-79.35129,351,276.47,14167781929,False,$$,Toronto
Pizzeria Libretto Danforth,"Pizza, Italian",Pizza,Italian,4.0,"550 Danforth Avenue, Toronto",43.678587,-79.347578,325,436.56,14164660400,False,$$,Toronto
The Wren,"Bars, American",Bars,American,4.0,"1382 Danforth Avenue, Toronto",43.68241,-79.32805,223,2011.65,16477481382,False,$$,Toronto
Simone's Caribbean Restaurant,Caribbean,Caribbean,Caribbean,4.5,"596 Danforth Avenue, Toronto",43.67884,-79.34654,146,513.85,14167925252,False,$$,Toronto
Messini Authentic Gyros,"Greek, Sandwiches",Sandwiches,Greek,3.5,"445 Danforth Avenue, Toronto",43.67753,-79.3504,532,290.12,14167784861,False,$$,Toronto
Athens Restaurant,"Greek, Seafood",Seafood,Greek,4.0,"707 Danforth Avenue, Toronto",43.67896,-79.34341,91,752.32,14164654441,False,$$,Toronto
RYUS Noodle Bar,Ramen,Ramen,NA,4.0,"786 Broadview Avenue, Toronto",43.6771,-79.35905,393,583.14,16473449306,False,$$,Toronto
Papyrus,Egyptian,Egyptian,NA,5.0,"337 Danforth Avenue, Toronto",43.67709,-79.35324,52,290.98,16473523878,False,$$,Toronto
Local 1794,"Canadian (New), Gastropubs",Gastropubs,Canadian (New),4.0,"1794 Danforth Avenue, Toronto",43.68459,-79.31881,121,2782.97,14164631794,False,$$,Toronto
Mengrai Thai,"Thai, Noodles",Thai,Thai,4.0,"82 Ontario Street, Toronto",43.6541,-79.366917,302,3067.94,14168402754,False,$$,Toronto
Ascari,"Italian, Bars",Bars,Italian,4.0,"1111 Queen Street E, Toronto",43.66193,-79.335342,129,2412.53,14167924157,False,$$$,Toronto
Lake Inez,"Bars, Asian Fusion",Bars,Asian Fusion,4.5,"1471 Gerrard Street E, Toronto",43.67234,-79.32064,96,2708.1,<NA>,False,$$$,Toronto
Madrina Bar y Tapas,Tapas Bars,Tapas Bars,NA,4.0,"2 Trinity Street, Toronto",43.649718,-79.359679,152,3382.64,14165488055,False,$$,Toronto
Tinuno,"Filipino, Seafood",Seafood,Filipino,4.0,"31 Howard Street, Toronto",43.671107,-79.374843,625,2016.44,16473439294,False,$$,Toronto
Sala Modern Thai Kitchen & Bar,"Thai, Asian Fusion",Thai,"Thai, Asian Fusion",4.5,"1262 Danforth Avenue, Toronto",43.681999,-79.330737,200,1791.18,14164059999,False,$$,Toronto
Tabule Middle Eastern Cuisine,Middle Eastern,Middle Eastern,Middle Eastern,4.0,"810 Queen Street  E, Toronto",43.659652,-79.346481,203,2289.29,14164652500,False,$$,Toronto
The One Fusion Cuisine | 聚龍軒,Chinese,Chinese,Chinese,4.0,"9019 Bayview Ave., Richmond Hill",43.851401,-79.408161,240,212.73,19058829388,False,$$,Toronto
The Keg Steakhouse + Bar,"Steakhouses, Bars, Seafood","Steakhouses, Bars, Seafood",NA,4.0,"162 York Boulevard, Richmond Hill",43.848332,-79.375726,242,2686.57,19058820500,False,$$$,Toronto
Abruzzo Pizza,"Italian, Pizza",Pizza,Italian,4.0,"9010 Yonge St, Richmond Hill",43.84706,-79.43208,259,1856.71,19058818222,False,$$,Toronto
Kim's Tofu,"Korean, Soup",Korean,Korean,4.0,"9019 Bayview Avenue, Richmond Hill",43.851134,-79.408006,121,191.46,19057631911,False,$$,Toronto
Isaan Der - Thai Kitchen & Bar,"Thai, Soup, Noodles",Thai,Thai,4.5,"9021 Leslie Street, Richmond Hill",43.848351,-79.382236,71,2165.31,19058826908,False,$$,Toronto
The Flying Fish,"Japanese, Sushi Bars, Asian Fusion",Sushi Bars,"Japanese, Asian Fusion",4.0,"324 Highway 7, Richmond Hill",43.840483,-79.40045,83,1208.0,19058829959,False,$$,Toronto
Millstone Rice Rolls,Cantonese,Cantonese,NA,4.0,"8-328 Highway 7, Richmond Hill",43.841669,-79.399603,38,1172.32,12895976788,False,$$,Toronto
Jin Korean Noodles,"Korean, Dumplings, Noodles",Korean,Korean,4.5,"230 Commerce Valley Drive E, Markham",43.843986,-79.378126,145,2568.28,19057645922,False,$$,Toronto
Fresh Burger,Burgers,Burgers,NA,4.0,"9206 Leslie Street, Richmond Hill",43.861342,-79.387462,343,2174.19,19055977224,False,$$,Toronto
Jim Chai Kee,Chinese,Chinese,Chinese,4.0,"270 W Beaver Creek Road, Richmond Hill",43.844378,-79.387758,360,1814.59,19058818778,False,$,Toronto
Frilu Restaurant,Canadian (New),Canadian (New),Canadian (New),4.5,"7713 Yonge Street, Thornhill",43.81572,-79.42389,43,3957.11,12895978867,False,$$$$,Toronto
Saigon Star,Vietnamese,Vietnamese,Vietnamese,3.5,"330 Highway 7 E, Richmond Hill",43.841024,-79.39903,202,1256.71,19057317221,False,$$,Toronto
Daldongnae Korean BBQ - Richmond Hill,Korean,Korean,Korean,4.5,"135 York Blvd, Richmond Hill",43.84724,-79.37602,45,2671.76,19057070683,False,$$,Toronto
Palace Bakery & Cafe,"Bakeries, Cafes",Cafes,NA,4.5,"9019 Bayview Ave, Richmond Hill",43.851,-79.40807,17,175.99,19058822236,False,$,Toronto
Sapporo Sushi,Japanese,Japanese,Japanese,3.5,"109-330 Highway 7 E, Richmond Hill",43.841284,-79.398836,144,1245.08,19058827877,False,$$,Toronto
Shanghai Dim Sum,Dim Sum,Dim Sum,NA,3.5,"330 Highway 7 E, Richmond Hill",43.841509,-79.398914,142,1222.32,19058814680,False,$$,Toronto
"Parsi Sandwiches, Burgers, and Kabobs","Persian/Iranian, Sandwiches, Burgers","Sandwiches, Burgers",Persian/Iranian,5.0,"8199 Yonge Street, Thornhill",43.82788,-79.42651,61,2798.05,19055971188,False,$$,Toronto
Scaddabush,Italian,Italian,Italian,3.5,"155A York Boulevard, Richmond Hill",43.847312,-79.374402,446,2800.78,19057094280,False,$$,Toronto
My Wonderful Kitchen,Chinese,Chinese,Chinese,3.0,"350 Highway 7 E, Richmond Hill",43.84114,-79.39758,205,1294.13,19058891088,False,$$,Toronto
Yu Seafood,"Seafood, Dim Sum",Seafood,NA,3.5,"270 W Beaver Creek Rd, Richmond Hill",43.844446,-79.387398,351,1839.55,19058811688,False,$$,Toronto
Santorini Estiatorio,Greek,Greek,Greek,4.0,"288 John Street, Thornhill",43.819304,-79.398247,99,3392.4,19057314400,False,$$,Toronto
Szechuan Legend Restaurant,Chinese,Chinese,Chinese,4.5,"505 Highway 7 E, Thornhill",43.841969,-79.386415,50,2014.78,19058897883,False,$$,Toronto
Terra,"Canadian (New), Jazz & Blues, Seafood",Seafood,Canadian (New),4.0,"8199 Yonge Street, Thornhill",43.827904,-79.426592,121,2790.88,19057316161,False,$$$$,Toronto
Hub Sushi Fusion Japanese Restaurant,"Japanese, Sushi Bars, Asian Fusion",Sushi Bars,"Japanese, Asian Fusion",4.0,"7398 Yonge Street, Thornhill",43.8096,-79.42348,253,4614.68,19055971112,False,$$,Toronto
Tapagria Spanish Tapas,"Spanish, Tapas Bars, Seafood","Tapas Bars, Seafood",NA,3.5,"230 Commerce Valley Drive E, Markham",43.84368,-79.37783,297,2609.71,19057718868,False,$$,Toronto
Ten Ren's Tea,"Tea Rooms, Taiwanese",Tea Rooms,NA,3.5,"111 Times Avenue, Thornhill",43.841488,-79.391353,189,1692.44,19058818896,False,$$,Toronto
Cho Sun Ok,Korean,Korean,Korean,4.0,"7353 Yonge Street, Markham",43.806761,-79.421917,406,4875.56,19057078426,False,$$,Toronto
Hug Sushi,Sushi Bars,Sushi Bars,NA,4.0,"550 Highway 7, Richmond Hill",43.844543,-79.384388,71,2067.15,19058812583,False,$$,Toronto
Ushi Shabu Shabu,Hot Pot,Hot Pot,NA,4.0,"550 Highway 7 E, Richmond Hill",43.844126,-79.38461,86,2095.35,19057318080,False,$$$,Toronto
Tasty Pot,"Taiwanese, Bubble Tea, Hot Pot",Taiwanese,NA,4.0,"550 Hwy 7, Richmond Hill",43.844128,-79.384599,124,2095.35,19057638338,False,$$,Toronto
Ming Cuisine,"Chinese, Seafood",Seafood,Chinese,3.5,"1 Spadina Road, Richmond Hill",43.861172,-79.39518,76,1736.51,19058837655,False,$$$,Toronto
Hakka 77,Hakka,Hakka,NA,4.0,"165 E Beaver Creek Road, Richmond Hill",43.848759,-79.378657,82,2449.57,19057077707,False,$$,Toronto
Bâton Rouge Steakhouse & Bar,"Steakhouses, Seafood, Cocktail Bars","Steakhouses, Seafood, Cocktail Bars",NA,3.5,"230 Commerce Valley Drive E, Thornhill",43.84368,-79.37783,161,2609.8,19057646959,False,$$$,Toronto
Xiaolongkan Chinese Fondue,"Hot Pot, Fondue",Hot Pot,NA,4.0,"25-26 328 Highway 7, Richmond Hill",43.840949,-79.399694,23,1229.4,19055971885,False,$$$,Toronto
Mikaku Udon Bar,"Seafood, Asian Fusion, Bars","Seafood, Bars",Asian Fusion,4.0,"360 Highway 7 E, Richmond Hill",43.841632,-79.397249,94,1306.57,19057078787,False,$$,Toronto
Shinta Japanese BBQ,Japanese,Japanese,Japanese,3.5,"280 West Beaver Creek Road, Richmond Hill",43.843703,-79.388217,300,1805.84,19055970305,False,$$$,Toronto
Ryu Izakaya,"Japanese, Tapas/Small Plates, Cocktail Bars",Cocktail Bars,Japanese,4.0,"2 - 115 York Boulevard, Richmond Hill",43.847054,-79.37817,69,2503.18,19058818388,False,$$$,Toronto
Omei Restaurant,"Chinese, Seafood",Seafood,Chinese,3.5,"420 Highway 7 E, Richmond Hill",43.843493,-79.390817,171,1623.23,19058818188,False,$$$,Toronto
Cafe Bon Bon,"Coffee & Tea, Asian Fusion, Breakfast & Brunch",Coffee & Tea,Asian Fusion,3.5,"550 Highway 7 E, Richmond Hill",43.844869,-79.38455,300,2044.96,19055973166,False,$$,Toronto
Ramona's Kitchen,"Breakfast & Brunch, American",Breakfast & Brunch,American,4.0,"7355 Bayview Ave, Markham",43.81361,-79.39865,363,4125.62,19055979220,False,$$,Toronto
Big Trio Wonton Noodle,"Noodles, Chinese",Noodles,Chinese,4.5,"9688 Leslie Street, Richmond Hill",43.87282,-79.39053,34,2997.3,19057701771,False,$$,Toronto
Donburi,Japanese,Japanese,Japanese,3.5,"505 Highway 7 E, Markham",43.843337,-79.386047,417,1982.84,19055976505,False,$$,Toronto
Alchemy,"Breakfast & Brunch, Coffee & Tea",Coffee & Tea,NA,4.5,"16 Vogell Road, Richmond Hill",43.864375,-79.383424,44,2636.48,19052379669,False,$$,Toronto
The Keg Steakhouse + Bar,"Steakhouses, Bars, Seafood","Steakhouses, Bars, Seafood",NA,4.0,"927 Dixon Rd, Toronto",43.686245,-79.597377,183,3192.51,14166752311,False,$$$,Toronto
Zet's Restaurant,"Diners, Greek",Diners,Greek,4.0,"6445 Airport Road, Mississauga",43.6931,-79.62737,447,3025.91,19056781114,False,$$,Toronto
Desi Spice,"Indian, Buffets",Indian,Indian,4.0,"25 Woodbine Downs Boulevard, Toronto",43.735601,-79.604717,52,2343.29,14166757337,False,$$,Toronto
Chat Hut,Indian,Indian,Indian,4.5,"7106 Airport Road, Mississauga",43.70568,-79.64566,49,3467.1,19056722428,False,$,Toronto
Caribbean Lyme,"Caribbean, American, African",Caribbean,"Caribbean, American, African",4.5,"1747 Albion Road, Toronto",43.743429,-79.60549,10,3215.05,16474286994,False,$,Toronto
Golden Joy Hakka Restaurant,Hakka,Hakka,NA,4.0,"900 Albion Road, Toronto",43.735438,-79.559384,26,4285.59,14167428838,False,$,Toronto
Mandarin Restaurant,"Buffets, Chinese",Buffets,Chinese,3.0,"200 Queen's Plate Drive, Rexdale",43.719867,-79.595943,38,889.43,14167466000,False,$$,Toronto
Punjabi Dhaba,"Food Trucks, Indian",Food Trucks,Indian,4.0,"2855 Derry Road E, Mississauga",43.70229,-79.644669,64,3530.74,19059563442,False,$,Toronto
Chopstick Cuisine,"Chinese, Seafood, Soup",Seafood,Chinese,4.0,"2875 Derry Road E, Mississauga",43.7031,-79.64428,41,3462.52,19056728225,False,$$,Toronto
Karahi Point,"Indian, Pakistani",Indian,Indian,4.0,"2642 Islington Avenue, Etobicoke",43.737996,-79.566267,86,3998.31,14167466555,False,$$,Toronto
Ruths Chris Steak House Toronto Airport,"Steakhouses, Lounges, Seafood","Steakhouses, Seafood",NA,4.0,"970 Dixon Rd, Mississauga",43.68762,-79.60034,68,2998.79,16477975400,False,$$$$,Toronto
Wahlburgers,"Burgers, American",Burgers,American,2.5,"6301 Silver Dart Drive, Toronto",43.683214,-79.612614,215,3434.03,14167762576,False,$$,Toronto
Wok Of Asia,"Hakka, Thai",Hakka,Thai,3.5,"6640 Finch Avenue, Toronto",43.7341,-79.605779,40,2179.72,14166752066,False,$,Toronto
Samosa and Sweet Factory,"Indian, Desserts",Desserts,Indian,4.0,"1850 Albion Road, Etobicoke",43.7465,-79.61537,96,3643.85,14162131165,False,$,Toronto
MOMO 2 GO,Chinese,Chinese,Chinese,4.5,"1530 Albion Road, Toronto",43.740554,-79.584946,10,3302.57,16475751691,False,$,Toronto
Sushi House,Japanese,Japanese,Japanese,4.0,"500 Rexdale Boulevard, Toronto",43.717789,-79.596939,11,756.4,14162131858,False,$$,Toronto
Sweet Mahal,Indian,Indian,Indian,3.0,"680 Rexdale Boulevard, Toronto",43.72063,-79.61405,46,1091.84,14166799191,False,$$,Toronto
Zaytoun Kitchen,"Afghan, Halal, Chicken Wings",Afghan,NA,4.5,"120 Queens Plate Drive, Toronto",43.714983,-79.593759,5,839.61,14167451100,False,$$,Toronto
Shawarma and Kebob Palace,"Egyptian, Kebab",Egyptian,NA,5.0,"180 Queens Plate Drive, Toronto",43.719081,-79.594506,4,928.13,14167429761,False,$$,Toronto
Charleys Cheesesteaks,"Steakhouses, Sandwiches, Cheesesteaks","Steakhouses, Sandwiches, Cheesesteaks",NA,4.5,"500 Rexdale Road, Etobicoke",43.719957,-79.600621,4,668.03,14167989914,False,$$,Toronto
Sweet India Restaurant,Indian,Indian,Indian,3.5,"7126 Airport Road, Mississauga",43.70609,-79.64608,84,3497.19,19056730041,False,$,Toronto
Tandoori Time,"Pakistani, Indian, Halal",Pakistani,Indian,3.5,"1727 Albion Road, Toronto",43.743394,-79.602661,38,3211.8,14167427272,False,$$,Toronto
Firehouse Subs,"Sandwiches, Fast Food, Delis","Sandwiches, Fast Food",NA,4.5,"6815 Airport Rd., Mississauga",43.70027,-79.63713,17,3086.45,19054051964,False,$$,Toronto
Starving Artist,Breakfast & Brunch,Breakfast & Brunch,NA,3.5,"2141 Kipling Avenue, Toronto",43.719448,-79.569307,37,2856.04,16473508240,False,$$,Toronto
Q's Shawarma,Mediterranean,Mediterranean,Mediterranean,4.0,"1075 Martin Grove Road, Toronto",43.70163,-79.575073,17,2747.94,14162407712,False,$$,Toronto
Al-Meezans Spicy Grill,"Middle Eastern, Afghan",Middle Eastern,Middle Eastern,3.0,"670 Rexdale Boulevard, Toronto",43.72075,-79.61325,17,993.13,14166757775,False,$,Toronto
The Kebob,"Halal, Pakistani",Halal,NA,4.0,"3417 Derry Road E, Mississauga",43.71305,-79.6333,11,2344.96,19056782324,False,$$,Toronto
Ralph’s West Indian Delights,"Caribbean, Breakfast & Brunch",Caribbean,Caribbean,5.0,"180 Queens Plate Drive, Toronto",43.718771,-79.594552,3,906.61,14166747765,False,$$,Toronto
Lone Star Texas Grill,"Tex-Mex, Burgers, Steakhouses","Burgers, Steakhouses",NA,3.0,"930 Dixon Rd, Etobicoke",43.686862,-79.597293,95,3126.12,14166747777,False,$$,Toronto
Harvey's,"Burgers, Fast Food, American","Burgers, Fast Food",American,4.5,"6995 Rexwood Road, Mississauga",43.71595,-79.62651,8,1803.69,19056127336,False,$$,Toronto
St. Louis Bar and Grill,"Sports Bars, Chicken Wings",Sports Bars,NA,2.0,"557 Dixon Road, Toronto",43.69006,-79.57165,51,3770.42,14162485622,False,$$,Toronto
Pita Land,"Middle Eastern, Halal, Sandwiches",Sandwiches,Middle Eastern,4.0,"285 Rexdale Blvd, Toronto",43.71312,-79.58016,8,1931.64,14167446863,False,$$,Toronto
LOT 41,"Lounges, Tapas/Small Plates, Cocktail Bars",Cocktail Bars,NA,3.0,"655 Dixon Road, Toronto",43.689408,-79.578634,17,3467.46,14162441711,False,$$,Toronto
Arizona Grill Lounge,"Barbeque, Mexican, Pubs","Barbeque, Pubs",Mexican,2.0,"215 Carlingview Drive, Etobicoke",43.68346,-79.59241,133,3541.37,14166747772,False,$$,Toronto
Brar Sweets & Restaurant,Indian,Indian,Indian,3.5,"2646 Islington Avenue, Etobicoke",43.73809,-79.56626,41,4029.25,14167454449,False,$,Toronto
Thai Express,Thai,Thai,Thai,4.0,"500 Rexdale Boulevard, Toronto",43.719243,-79.599332,3,653.3,14166798158,False,$,Toronto
TOCA,Italian,Italian,Italian,4.0,"181 Wellington Street W, Toronto",43.64532,-79.387102,171,516.45,14165728008,False,$$$$,Toronto
The Loose Moose,"Sports Bars, Gastropubs, Canadian (New)","Sports Bars, Gastropubs",Canadian (New),3.5,"146 Front Street West, Toronto",43.645227,-79.38385,462,254.79,14169778840,False,$$,Toronto
Akira Back,"Japanese, Korean, Asian Fusion",Japanese,"Japanese, Korean, Asian Fusion",4.0,"80 Blue Jays Way, Toronto",43.64541,-79.3923,207,942.46,14378005967,False,$$$$,Toronto
Minami Toronto,"Japanese, Sushi Bars",Sushi Bars,Japanese,4.0,"225 King Street W, Toronto",43.646709,-79.388483,112,647.99,14165199182,False,$$$$,Toronto
Estiatorio Volos,"Seafood, Greek, Mediterranean",Seafood,"Greek, Mediterranean",4.0,"133 Richmond St W, Toronto",43.65016,-79.38477,339,631.4,14168611211,False,$$$,Toronto
Sansotei Ramen,Ramen,Ramen,NA,4.5,"65 Front Street W, Toronto",43.645322,-79.380408,18,23.36,14168619770,False,$$$,Toronto
360 Restaurant,Canadian (New),Canadian (New),Canadian (New),3.5,"290 Bremner Blvd, Toronto",43.64224,-79.389813,1033,807.51,14163625411,False,$$$$,Toronto
Chefs Hall,Food Court,Food Court,NA,4.0,"111 Richmond Street W, Toronto",43.650352,-79.383795,323,619.45,16475575993,False,$$,Toronto
Holy Cow Japanese Steakhouse,"Steakhouses, Halal, Asian Fusion",Steakhouses,Asian Fusion,4.5,"254 Queen Street  W, Toronto",43.64993,-79.39145,163,1016.97,14167928269,False,$$$,Toronto
Chotto Matte,"Japanese, Peruvian, Sushi Bars",Sushi Bars,"Japanese, Peruvian",4.0,"161 Bay Street, Toronto",43.646287,-79.378871,167,185.45,14169888097,False,$$$,Toronto
Michael's on Simcoe,"Steakhouses, Italian, Seafood","Steakhouses, Seafood",Italian,4.0,"100 Simcoe Street, Toronto",43.64819,-79.386719,168,569.0,14162605100,False,$$$$,Toronto
Terroni,Italian,Italian,Italian,3.5,"57A Adelaide Street E, Toronto",43.6508,-79.3756,797,746.54,14162033093,False,$$,Toronto
Levetto,"Italian, Pizza, Salad",Pizza,Italian,4.0,"9001 Dufferin Street, Thornhill",43.836376,-79.480823,236,153.83,19055536400,False,$$,Toronto
Aroowha Sushi & Sake Bar,"Japanese, Seafood Markets",Seafood Markets,Japanese,4.0,"1101 Rutherford Road, Thornhill",43.8433,-79.47989,123,1132.8,19058860309,False,$$,Toronto
Mister laffa,Middle Eastern,Middle Eastern,Middle Eastern,3.5,"9001 Dufferin Street, Thornhill",43.836023,-79.481272,59,199.6,19057649191,False,$,Toronto
Antonino's Pizzeria & Panini,"Pizza, Italian, Salad",Pizza,Italian,4.0,"1801 Rutherford Road, Concord",43.84012,-79.49272,72,1005.89,19053034888,False,$$,Toronto
Sushi Wa,"Sushi Bars, Japanese, Asian Fusion",Sushi Bars,"Japanese, Asian Fusion",4.5,"7000 Bathurst Street, Vaughan",43.79311,-79.44669,235,5672.53,19057601294,False,$$,Toronto
The Corned Beef House,"Sandwiches, Salad, Coffee & Tea","Sandwiches, Coffee & Tea",NA,4.0,"8707 Dufferin Street, Vaughan",43.82854,-79.47888,24,1052.42,19055971994,False,$$,Toronto
Sofram,Mediterranean,Mediterranean,Mediterranean,3.5,"8707 Dufferin Street, Thornhill",43.8284,-79.478336,92,1055.19,19059079999,False,$$,Toronto
Farro Ristorante,Italian,Italian,Italian,4.0,"2316 Major Mackenzie Drive, Vaughan",43.85491,-79.5148,70,3338.25,19058320650,False,$$,Toronto
Pho Metro,Vietnamese,Vietnamese,Vietnamese,4.0,"2499 Rutherford Road, Vaughan",43.834673,-79.515998,63,2860.42,12895533979,False,$$,Toronto
Dante's Pizzeria,"Pizza, Italian, Sandwiches","Pizza, Sandwiches",Italian,4.0,"8700 Dufferin Street, Vaughan",43.827788,-79.480539,78,1107.59,19057611115,False,$$,Toronto
Myeongdong Gyoza Kalguksu,Korean,Korean,Korean,4.5,"106-7117 Bathurst Street, Thornhill",43.794986,-79.445732,64,5516.58,19055973911,False,$$,Toronto
AiTaiker Taiwanese Fried Chicken,"Chicken Shop, Fast Food",Fast Food,NA,4.0,"9200 Bathurst Street, Vaughan",43.84709,-79.459796,50,1964.7,19055975883,False,$$,Toronto
Copper Branch,"Vegan, Vegetarian, Gluten-Free",Vegan,NA,4.5,"10 Disera Drive, Thornhill",43.81068,-79.45437,31,3673.71,19057090404,False,$$,Toronto
Pho Viet Xpress,Vietnamese,Vietnamese,Vietnamese,4.0,"7077 Bathurst Street, Vaughan",43.793932,-79.445552,166,5625.14,19058898837,False,$$,Toronto
Nina's Tropical Island,"Caribbean, Soul Food",Caribbean,Caribbean,4.0,"20 Rivermede Road, Vaughan",43.811607,-79.481711,54,2908.24,19056698301,False,$$,Toronto
Amadeus Patisserie,"Bakeries, Custom Cakes, Cafes",Cafes,NA,4.0,"7380 Bathurst Street, Thornhill",43.802586,-79.448704,157,4672.49,19058829957,False,$$,Toronto
Efendi,"Turkish, Kebab, Halal",Turkish,NA,4.0,"1076 Rutherford Road, Maple",43.84594,-79.47003,16,1244.26,19058329969,False,$$,Toronto
Me Va Me,Middle Eastern,Middle Eastern,Middle Eastern,3.5,"9302 Bathurst Street, Thornhill",43.847487,-79.458824,96,2001.51,19054179472,False,$$,Toronto
Stonefire,"Italian, Pizza",Pizza,Italian,3.5,"8700 Bathurst Street, Thornhill",43.834531,-79.456,44,2004.56,19057093473,False,$$,Toronto
Ichiban Sushi House,"Japanese, Sushi Bars",Sushi Bars,Japanese,3.5,"8707 Dufferin Street, Thornhill",43.829267,-79.479078,25,950.89,19057316116,False,$$$,Toronto
WEGZ Stadium Bar,"Sports Bars, American",Sports Bars,American,3.0,"2601 Rutherford Road, Vaughan",43.833225,-79.52137,89,3309.27,19053039349,False,$$,Toronto
Dejavu Mediterranean Cuisine,"Mediterranean, Middle Eastern",Mediterranean,"Mediterranean, Middle Eastern",4.0,"1470 Centre Street, Vaughan",43.806538,-79.473744,25,3513.71,19057092274,False,$$,Toronto
Halibut House Fish and Chips,"Fish & Chips, Breakfast & Brunch, Chicken Wings",Fish & Chips,NA,4.0,"11 Disera Avenue, Thornhill",43.810779,-79.4536,29,3698.95,19058898484,False,$$,Toronto
Mr Zagros,"Mediterranean, Turkish, Middle Eastern",Mediterranean,"Mediterranean, Middle Eastern",3.5,"9200 Bathurst Street, Vaughan",43.847032,-79.459854,53,1957.37,19055974007,False,$$,Toronto
The Bean Sprout,"Gluten-Free, Vegan",Gluten-Free,NA,4.5,"219 Connie Crescent, Concord",43.81935,-79.48571,17,2086.69,19055978996,False,$$,Toronto
Me Va Me,Middle Eastern,Middle Eastern,Middle Eastern,3.5,"7000 Bathurst Street, Vaughan",43.79311,-79.44669,173,5672.53,19057717377,False,$$,Toronto
Nomé Izakaya,"Lounges, Japanese, Tapas Bars",Tapas Bars,Japanese,4.0,"4848 Yonge Street, Toronto",43.76265,-79.411469,722,678.13,16473477937,False,$$$,Toronto
MeNami,"Japanese, Asian Fusion",Japanese,"Japanese, Asian Fusion",4.0,"5469 Yonge Street, Toronto",43.77784,-79.41474,558,1034.0,14162296191,False,$$,Toronto
Konjiki Ramen,Ramen,Ramen,NA,4.0,"5051 Yonge Street, Toronto",43.76719,-79.41198,629,192.6,16473507766,False,$$,Toronto
Sushi Moto,"Sushi Bars, Wine Bars","Sushi Bars, Wine Bars",NA,4.0,"4901 Yonge Street, North York",43.763983,-79.41138,401,536.35,14162240741,False,$$,Toronto
Shinta Japanese BBQ,"Japanese, Barbeque",Barbeque,Japanese,4.0,"5095 Yonge Street, Toronto",43.76828,-79.41223,63,77.34,14165517446,False,$$$,Toronto
EAT BKK Thai Kitchen & Bar,Thai,Thai,Thai,4.5,"6307 Yonge Street, Toronto",43.7957,-79.41915,288,3054.61,16473509336,False,$$,Toronto
The Keg Steakhouse + Bar,"Bars, Steakhouses, Seafood","Bars, Steakhouses, Seafood",NA,4.0,"5015 Yonge Street, North York",43.76651,-79.41185,94,270.81,14167332555,False,$$$,Toronto
Daldongnae Korean BBQ - Cummer,"Korean, Barbeque",Barbeque,Korean,4.0,"6034 Yonge Street, Toronto",43.789726,-79.418312,361,2379.62,14162266034,False,$$$,Toronto
Petit Potato,"Taiwanese, Japanese",Taiwanese,Japanese,4.0,"5095 Yonge Street, Toronto",43.76828,-79.41223,138,77.34,14162292368,False,$$,Toronto
Mapo Gamjatang,Korean,Korean,Korean,4.0,"4916 Yonge Street, Toronto",43.764216,-79.411969,92,499.34,14162254343,False,$$,Toronto
Katsuya,Japanese,Japanese,Japanese,4.5,"6050 Yonge Street, Toronto",43.789922,-79.41846,418,2406.5,16477296161,False,$$,Toronto
Han Ba Tang,"Korean, Bars",Bars,Korean,3.5,"4862 Yonge Street, Toronto",43.76288,-79.41162,304,648.39,14165468218,False,$$,Toronto
KINKA IZAKAYA NORTH YORK,"Japanese, Tapas/Small Plates, Pubs",Pubs,Japanese,3.5,"4775 Yonge Street, Toronto",43.760514,-79.410494,448,952.76,16473466246,False,$$$,Toronto
TORCH Pressed Sushi,"Japanese, Sushi Bars",Sushi Bars,Japanese,4.0,"5317 Yonge St, Toronto",43.773425,-79.413706,206,537.12,16475630824,False,$$,Toronto
Chat Bar,Chinese,Chinese,Chinese,4.0,"5312 Yonge Street, Toronto",43.77299,-79.41414,61,491.02,16475085588,False,$$,Toronto
Cafe Landwer - North York,"Cafes, Mediterranean, Breakfast & Brunch",Cafes,Mediterranean,3.5,"5000 Yonge St, North York",43.766194,-79.412856,141,273.2,14162265005,False,$$,Toronto
Ichiban Asian AYCE,"Japanese, Sushi Bars",Sushi Bars,Japanese,3.5,"5095 Yonge St, Toronto",43.76828,-79.41223,67,77.34,14162288881,False,$$$,Toronto
Sansotei Ramen,"Ramen, Noodles",Ramen,NA,4.0,"13 Byng Avenue, North York",43.776747,-79.413887,150,906.8,14169011160,False,$$,Toronto
OPA! of Greece North York City Centre,"Fast Food, Greek",Fast Food,Greek,4.0,"5150 Yonge Street, Toronto",43.768698,-79.413163,7,15.17,16477481044,False,$$,Toronto
Good Luck Hongkong Cafe,Hong Kong Style Cafe,Hong Kong Style Cafe,NA,4.0,"5533 Yonge Street, North York",43.77856,-79.41484,110,1113.87,14162268666,False,$$,Toronto
ON/OFF,"Asian Fusion, Cocktail Bars",Cocktail Bars,Asian Fusion,4.5,"5463 Yonge Street, Toronto",43.777683,-79.41466,43,1019.14,16476865336,False,$$,Toronto
KINTON RAMEN NORTH YORK,Ramen,Ramen,NA,3.5,"5165 Yonge Street, Toronto",43.769809,-79.412754,305,141.09,16473507887,False,$$,Toronto
Pastel Creperies & Dessert House,"Creperies, Desserts, Coffee & Tea","Desserts, Coffee & Tea",NA,4.0,"5417 Yonge Street, North York",43.77605,-79.41424,359,858.87,16473525588,False,$$,Toronto
Mr Tonkatsu,Japanese,Japanese,Japanese,4.0,"4895 Yonge St, Toronto",43.763788,-79.411154,80,562.5,14162231117,False,$$,Toronto
Union Social Eatery,"Gastropubs, Burgers, Barbeque","Gastropubs, Burgers, Barbeque",NA,3.5,"4899 Yonge Street, Toronto",43.763904,-79.411188,272,549.31,14162216789,False,$$,Toronto
Daldongnae Korean BBQ - Steeles,"Barbeque, Korean",Barbeque,Korean,4.0,"6347 Yonge Street, Toronto",43.796169,-79.419154,110,3099.2,16473685472,False,$$$,Toronto
Jack Astor's Bar and Grill,"Canadian (New), Sports Bars, Burgers","Sports Bars, Burgers",Canadian (New),2.5,"5051 Yonge Street, North York",43.767066,-79.412071,177,197.36,14162211221,False,$$,Toronto
Poke Eats,"Sushi Bars, Poke",Sushi Bars,NA,4.0,"4750 Yonge Street, Toronto",43.759712,-79.410703,143,1010.4,14167923958,False,$$,Toronto
Daldongnae Korean BBQ - Empress,"Korean, Bars, Barbeque","Bars, Barbeque",Korean,4.0,"5211 Yonge St, North York",43.770782,-79.41295,120,243.31,14165199769,False,$$$,Toronto
Vietnoms,Vietnamese,Vietnamese,Vietnamese,4.0,"243 Sheppard Avenue E, Toronto",43.764615,-79.396227,124,1454.91,16473525886,False,$$,Toronto
Gol’s Lanzhou Noodle,"Chinese, Noodles",Chinese,Chinese,4.0,"5505 Yonge Street, Toronto",43.77809,-79.41479,37,1061.49,14162219696,False,$$,Toronto
Pizza Maru - Sheppard,"Pizza, Chicken Wings, Beer Bar","Pizza, Beer Bar",NA,4.5,"4850 Yonge st, North York",43.762568,-79.411528,26,685.81,14162223337,False,$$,Toronto
Mymy Chicken,"Chicken Wings, Korean",Chicken Wings,Korean,4.0,"9 Spring Garden Avenue, Toronto",43.76424,-79.41079,243,517.63,14162277772,False,$$,Toronto
Fresh Burger,Burgers,Burgers,NA,4.0,"5025 Yonge Street, Toronto",43.76684,-79.41192,29,221.74,14169019018,False,$$,Toronto
Egg Club,Sandwiches,Sandwiches,NA,4.5,"5423 Yonge Street, North York",43.776355,-79.414386,39,866.38,<NA>,False,$$,Toronto
Wood House BBQ,"Chinese, Barbeque, Seafood","Barbeque, Seafood",Chinese,4.0,"4664 Yonge Street, Toronto",43.75793,-79.4105,66,1207.82,14165901315,False,$$,Toronto
Second Cup,Cafes,Cafes,NA,3.0,"5150 Yonge Street, North York",43.76889,-79.41299,11,13.33,14162266968,False,$,Toronto
Tokyo Grill,Japanese,Japanese,Japanese,3.5,"5175 Yonge Street, Toronto",43.77001,-79.41271,53,158.67,16477486700,False,$,Toronto
Hay Sushi,Japanese,Japanese,Japanese,4.5,"41 Spring Garden Ave, Toronto",43.764494,-79.40993,82,521.68,16473509295,False,$,Toronto
Ajisen Ramen,Ramen,Ramen,NA,3.5,"5229 Yonge Street, Toronto",43.7715,-79.413284,174,322.12,14162230618,False,$$,Toronto
Michi Sushi,"Japanese, Sushi Bars",Sushi Bars,Japanese,4.0,"126 Willowdale Avenue, North York",43.76509,-79.40043,54,1105.17,14162248881,False,$$,Toronto
Aroma espresso bar,"Coffee & Tea, Cafes","Coffee & Tea, Cafes",NA,3.5,"8 Park Home Avenue, Toronto",43.768837,-79.4135,36,30.57,16473487711,False,$$,Toronto
Good Taste Casserole Rice,Chinese,Chinese,Chinese,4.5,"5205 Yonge Street, Toronto",43.770674,-79.413026,15,231.36,14162216166,False,$$,Toronto
Da Endz Restaurant ,"Caribbean, Waffles, Chicken Wings",Caribbean,Caribbean,4.5,"5210 Yonge Street, Toronto",43.770813,-79.413656,13,247.36,14163580460,False,$$,Toronto
Buk Chang Dong Soon Tofu,Korean,Korean,Korean,4.0,"5445 Yonge Street, North York",43.777044,-79.414544,390,943.84,16474307458,False,$$,Toronto
Saku Sushi,"Sushi Bars, Japanese",Sushi Bars,Japanese,4.0,"478 Queen Street W, Toronto",43.6482,-79.4003,535,541.76,14163687258,False,$$,Toronto
Raku,"Japanese, Noodles",Japanese,Japanese,4.0,"456 Queen St W, Toronto",43.64831,-79.39944,298,505.13,14165469325,False,$$,Toronto
Juicy Dumpling,"Dim Sum, Dumplings",Dim Sum,NA,4.0,"280 Spadina Ave, Toronto",43.65252,-79.39854,641,55.62,16473525678,False,$,Toronto
Wilbur Mexicana,Mexican,Mexican,Mexican,4.0,"552 King Street W, Toronto",43.64494,-79.39866,612,868.35,14167921878,False,$$,Toronto
Fresco's Fish & Chips,"Fish & Chips, Chicken Wings, Sandwiches",Sandwiches,NA,4.5,"201 Augusta Avenue, Toronto",43.653834,-79.401548,386,309.7,14165464557,False,$$,Toronto
Cluck Clucks,"Chicken Shop, Comfort Food, Sandwiches",Sandwiches,NA,4.5,"222 The Esplanade, Toronto",43.649769,-79.36609,292,343.7,16477482582,False,$$,Toronto
Hokkaido Ramen Santouka,"Ramen, Noodles",Ramen,NA,4.0,"91 Dundas Street E, Toronto",43.656322,-79.3775,896,885.61,16477481717,False,$$,Toronto
Bindia Indian Bistro,Indian,Indian,Indian,4.0,"16 Market St., Toronto",43.648695,-79.371996,208,224.55,14168630000,False,$$,Toronto
El Catrin Destileria,Mexican,Mexican,Mexican,3.5,"18 Tank House Lane, Toronto",43.65052,-79.35883,1042,939.81,14162032121,False,$$$,Toronto
Cluny Bistro & Boulangerie,"French, Wine Bars, Cocktail Bars","Wine Bars, Cocktail Bars",French,3.5,"35 Tank House Lane, Toronto",43.650588,-79.357896,655,998.36,14162032632,False,$$$,Toronto
